{"NSK": {"latitude": 69.3110961914062, "label": "Noril'sk", "iata": "NSK", "longitude": 87.3321990966797}, "ZTR": {"latitude": 50.270556, "label": "Kiev", "iata": "ZTR", "longitude": 28.738611}, "GAL": {"latitude": 64.73619843, "label": "Galena", "iata": "GAL", "longitude": -156.9369965}, "LFT": {"latitude": 30.20529938, "label": "Lafayette", "iata": "LFT", "longitude": -91.98760223}, "FDU": {"latitude": -3.31132006645203, "label": "Kinshasa ", "iata": "FDU", "longitude": 17.3817005157471}, "ITQ": {"latitude": -29.1730995178223, "label": "Uruguaiana", "iata": "ITQ", "longitude": -56.5367012023926}, "NGL": {"latitude": -24.3878002166748, "label": "Phalaborwa", "iata": "NGL", "longitude": 31.3257999420166}, "VIS": {"latitude": 36.3186988831, "label": "Visalia", "iata": "VIS", "longitude": -119.392997742}, "NEC": {"latitude": -38.4831, "label": "Necochea", "iata": "NEC", "longitude": -58.8172}, "KUH": {"latitude": 43.0410003662, "label": "Kushiro", "iata": "KUH", "longitude": 144.192993164}, "GAT": {"latitude": 44.4550018310547, "label": "Gap", "iata": "GAT", "longitude": 6.03777980804443}, "BOA": {"latitude": -5.85400009155273, "label": "boma", "iata": "BOA", "longitude": 13.0640001296997}, "BNE": {"latitude": -27.3841991424561, "label": "Brisbane", "iata": "BNE", "longitude": 153.117004394531}, "MCP": {"latitude": 0.0506640002131, "label": "Macapa", "iata": "MCP", "longitude": -51.0722007751}, "VRA": {"latitude": 23.0792007446207, "label": "Varadero", "iata": "VRA", "longitude": -81.3684501647875}, "BFE": {"latitude": 51.9647216796875, "label": "Bielefeld", "iata": "BFE", "longitude": 8.54444408416748}, "GNY": {"latitude": 37.4456634521484, "label": "\u015eanl\u0131urfa", "iata": "GNY", "longitude": 38.8955917358398}, "TKZ": {"latitude": -38.2366981506348, "label": "Tokoroa", "iata": "TKZ", "longitude": 175.891998291016}, "AMZ": {"latitude": -37.0297012329102, "label": "Auckland", "iata": "AMZ", "longitude": 174.973007202148}, "MFF": {"latitude": -1.53299999237, "label": "Moanda", "iata": "MFF", "longitude": 13.2670001984}, "USQ": {"latitude": 38.6814994812012, "label": "Usak", "iata": "USQ", "longitude": 29.471700668335}, "DJN": {"latitude": 64.0503997803, "label": "Fairbanks", "iata": "DJN", "longitude": -145.716995239}, "ORY": {"latitude": 48.7252998352, "label": "Paris", "iata": "ORY", "longitude": 2.35944008827}, "SWP": {"latitude": -22.6618995666504, "label": "Swakopmund", "iata": "SWP", "longitude": 14.5680999755859}, "KYA": {"latitude": 37.9790000916, "label": "Konya", "iata": "KYA", "longitude": 32.5619010925}, "CGI": {"latitude": 37.2252998352051, "label": "Cape Girardeau", "iata": "CGI", "longitude": -89.57080078125}, "GCW": {"latitude": 35.990398407, "label": "Peach Springs", "iata": "GCW", "longitude": -113.816001892}, "YYD": {"latitude": 54.8246994018555, "label": "Houston", "iata": "YYD", "longitude": -127.182998657227}, "SPT": {"latitude": 5.08333301544189, "label": "Borneo ", "iata": "SPT", "longitude": 115.550003051758}, "MWG": {"latitude": -6.9736, "label": "New Guinea", "iata": "MWG", "longitude": 145.8849}, "CBS": {"latitude": 10.3306999206543, "label": "Cabimas", "iata": "CBS", "longitude": -71.3225021362305}, "GTI": {"latitude": 54.3833312988, "label": "Rugen", "iata": "GTI", "longitude": 13.3255558014}, "SPN": {"latitude": 15.1190004348755, "label": "Saipan", "iata": "SPN", "longitude": 145.72900390625}, "GOM": {"latitude": -1.67080998420715, "label": "Goma", "iata": "GOM", "longitude": 29.2385005950928}, "WIE": {"latitude": 50.0498008728027, "label": "Wiesbaden", "iata": "WIE", "longitude": 8.32540035247803}, "GNV": {"latitude": 29.6900997162, "label": "Gainesville", "iata": "GNV", "longitude": -82.2717971802}, "MJB": {"latitude": 10.2833, "label": "Butaritari", "iata": "MJB", "longitude": 170.869}, "AOT": {"latitude": 45.7384986877, "label": "Aosta", "iata": "AOT", "longitude": 7.36872005463}, "IQN": {"latitude": 35.7997016906738, "label": "Pingliang", "iata": "IQN", "longitude": 107.602996826172}, "FRC": {"latitude": -20.5921993255615, "label": "Franca", "iata": "FRC", "longitude": -47.3829002380371}, "BBG": {"latitude": 3.08582997322083, "label": "Butaritari", "iata": "BBG", "longitude": 172.811004638672}, "CLQ": {"latitude": 19.2770004272, "label": "Colima", "iata": "CLQ", "longitude": -103.577003479}, "ILE": {"latitude": 31.067199707, "label": "Killeen", "iata": "ILE", "longitude": -97.8289031982}, "KNM": {"latitude": -7.58300018310547, "label": "Kamina", "iata": "KNM", "longitude": 24.1499996185303}, "KBD": {"latitude": -17.3978004455566, "label": "Broome", "iata": "KBD", "longitude": 124.355003356934}, "ROC": {"latitude": 43.1189002990723, "label": "Rochester", "iata": "ROC", "longitude": -77.6724014282227}, "OKF": {"latitude": -19.1492004394531, "label": "Oshakati", "iata": "OKF", "longitude": 15.9118995666504}, "PAK": {"latitude": 21.896900177, "label": "Hanapepe", "iata": "PAK", "longitude": -159.602996826}, "OMB": {"latitude": -1.57473003864288, "label": "Omboue", "iata": "OMB", "longitude": 9.2626895904541}, "VLS": {"latitude": -16.7961006165, "label": "Epi Island", "iata": "VLS", "longitude": 168.177001953}, "PZH": {"latitude": 31.3584003448486, "label": "Zhob", "iata": "PZH", "longitude": 69.4636001586914}, "ADW": {"latitude": 38.810798645, "label": "Camp Springs", "iata": "ADW", "longitude": -76.8669967651}, "YBE": {"latitude": 59.5614013671875, "label": "Fort McMurray", "iata": "YBE", "longitude": -108.481002807617}, "HTG": {"latitude": 71.9781036376953, "label": "Khatanga", "iata": "HTG", "longitude": 102.490997314453}, "VME": {"latitude": -33.7299003601, "label": "San Luis", "iata": "VME", "longitude": -65.3873977661}, "BUG": {"latitude": -12.609000206, "label": "Benguela", "iata": "BUG", "longitude": 13.4036998749}, "VCD": {"latitude": -16.4021244049072, "label": "Judbarra / Gregory National Park", "iata": "VCD", "longitude": 131.004974365234}, "MKB": {"latitude": 1.01699995994568, "label": "Makokou", "iata": "MKB", "longitude": 13.9329996109009}, "EWK": {"latitude": 38.0582008362, "label": "Wichita", "iata": "EWK", "longitude": -97.2744979858}, "ADT": {"latitude": 34.8042984009, "label": "Ada", "iata": "ADT", "longitude": -96.6713027954}, "RIA": {"latitude": -29.7113990783691, "label": "Santa Maria", "iata": "RIA", "longitude": -53.6882019042969}, "YXU": {"latitude": 43.0355987549, "label": "London", "iata": "YXU", "longitude": -81.1539001465}, "TCT": {"latitude": 62.9926986694, "label": "Galena", "iata": "TCT", "longitude": -156.067993164}, "RAE": {"latitude": 30.9066009521484, "label": "Sakaka", "iata": "RAE", "longitude": 41.1381988525391}, "TSN": {"latitude": 39.1244010925, "label": "Tianjin", "iata": "TSN", "longitude": 117.346000671}, "KEM": {"latitude": 65.7787017822266, "label": "Tornio", "iata": "KEM", "longitude": 24.5820999145508}, "DKV": {"latitude": -24.8600006103516, "label": "Uluru", "iata": "DKV", "longitude": 129.070007324219}, "AMW": {"latitude": 41.99200058, "label": "Ames", "iata": "AMW", "longitude": -93.62180328}, "AYR": {"latitude": -19.584400177002, "label": "Townsville", "iata": "AYR", "longitude": 147.328994750977}, "AAY": {"latitude": 16.1916999816895, "label": "Zupus", "iata": "AAY", "longitude": 52.1749992370605}, "AUD": {"latitude": -18.5149993896484, "label": "Flinders River", "iata": "AUD", "longitude": 139.878005981445}, "RCL": {"latitude": -15.4720001221, "label": "Ambae Island", "iata": "RCL", "longitude": 167.835006714}, "SNW": {"latitude": 18.4606990814209, "label": "Akyab", "iata": "SNW", "longitude": 94.3001022338867}, "OAR": {"latitude": 36.68190002, "label": "Marina", "iata": "OAR", "longitude": -121.762001}, "RBM": {"latitude": 48.9008331298828, "label": "Straubing", "iata": "RBM", "longitude": 12.5166673660278}, "BDM": {"latitude": 40.318000793457, "label": "Istanbul", "iata": "BDM", "longitude": 27.9776992797852}, "GRP": {"latitude": -11.7396001815796, "label": "Gurupi", "iata": "GRP", "longitude": -49.1321983337402}, "LGA": {"latitude": 40.77719879, "label": "New York City", "iata": "LGA", "longitude": -73.87259674}, "AHN": {"latitude": 33.948600769043, "label": "Athens", "iata": "AHN", "longitude": -83.326301574707}, "MSR": {"latitude": 38.7477989196777, "label": "Mus", "iata": "MSR", "longitude": 41.6612014770508}, "HUZ": {"latitude": 23.0499992371, "label": "Huizhou", "iata": "HUZ", "longitude": 114.599998474}, "IOA": {"latitude": 39.6963996887207, "label": "Ioannina", "iata": "IOA", "longitude": 20.8225002288818}, "CHR": {"latitude": 46.8622016906738, "label": "Chateauroux", "iata": "CHR", "longitude": 1.73066997528076}, "TYR": {"latitude": 32.3540992736816, "label": "Tyler", "iata": "TYR", "longitude": -95.4023971557617}, "AGR": {"latitude": 27.1557998657227, "label": "Agra", "iata": "AGR", "longitude": 77.9608993530273}, "PSS": {"latitude": -27.3858, "label": "Posadas", "iata": "PSS", "longitude": -55.9707}, "GTR": {"latitude": 33.4502983093, "label": "Columbus", "iata": "GTR", "longitude": -88.5914001465}, "GMR": {"latitude": -23.0799007415771, "label": "French Polynesia", "iata": "GMR", "longitude": -134.889999389648}, "IPT": {"latitude": 41.2417984008789, "label": "Williamsport", "iata": "IPT", "longitude": -76.9210968017578}, "YMA": {"latitude": 63.6164016723633, "label": "Mayo", "iata": "YMA", "longitude": -135.86799621582}, "HZP": {"latitude": 57.3816986084, "label": "Fort McMurray", "iata": "HZP", "longitude": -111.700996399}, "MVV": {"latitude": 45.82080078125, "label": "Megeve", "iata": "MVV", "longitude": 6.65221977233887}, "LDE": {"latitude": 43.1786994934082, "label": "Tarbes", "iata": "LDE", "longitude": -0.006438999902457}, "HIW": {"latitude": 34.3669013977051, "label": "Hiroshima", "iata": "HIW", "longitude": 132.414001464844}, "MJE": {"latitude": 7.83300018310547, "label": "Malem", "iata": "MJE", "longitude": 168.167007446289}, "SBL": {"latitude": -13.7622003555, "label": "Trinidad", "iata": "SBL", "longitude": -65.4352035522}, "KBP": {"latitude": 50.3450012207031, "label": "Kiev", "iata": "KBP", "longitude": 30.8946990966797}, "MPX": {"latitude": -4.90305555556, "label": "New Guinea", "iata": "MPX", "longitude": 141.620833333}, "AJY": {"latitude": 16.9659996032715, "label": "Agadez", "iata": "AJY", "longitude": 8.00010967254639}, "MMU": {"latitude": 40.7994003295898, "label": "Morristown", "iata": "MMU", "longitude": -74.4149017333984}, "MBX": {"latitude": 46.4799003601074, "label": "Maribor", "iata": "MBX", "longitude": 15.6861000061035}, "YMH": {"latitude": 52.3027992248535, "label": "Happy Valley-Goose Bay", "iata": "YMH", "longitude": -55.8471984863281}, "NDA": {"latitude": -4.53332996368408, "label": "Ternate", "iata": "NDA", "longitude": 129.899993896484}, "APG": {"latitude": 39.46620178, "label": "Baltimore", "iata": "APG", "longitude": -76.16880035}, "PUQ": {"latitude": -53.0026016235352, "label": "Punta Arenas", "iata": "PUQ", "longitude": -70.8545989990234}, "WMN": {"latitude": -15.4366998672485, "label": "Maroantsetra", "iata": "WMN", "longitude": 49.6883010864258}, "MNW": {"latitude": -22.4440002441406, "label": "Tennant Creek", "iata": "MNW", "longitude": 135.199005126953}, "MYD": {"latitude": -3.22931003570557, "label": "Malindi", "iata": "MYD", "longitude": 40.1016998291016}, "TRC": {"latitude": 25.5683002472, "label": "Torreon", "iata": "TRC", "longitude": -103.411003113}, "PEW": {"latitude": 33.9939002990723, "label": "Peshawar", "iata": "PEW", "longitude": 71.5146026611328}, "AKS": {"latitude": -8.70256996155, "label": "Tulaghi", "iata": "AKS", "longitude": 160.682006836}, "HYA": {"latitude": 41.66930008, "label": "Hyannis", "iata": "HYA", "longitude": -70.28040314}, "BBC": {"latitude": 28.9733009338, "label": "Bay City", "iata": "BBC", "longitude": -95.8635025024}, "YVV": {"latitude": 44.7458000183105, "label": "Toronto", "iata": "YVV", "longitude": -81.1072006225586}, "MCK": {"latitude": 40.20629883, "label": "McCook", "iata": "MCK", "longitude": -100.5920029}, "NFG": {"latitude": 61.1082992553711, "label": "Nefteyugansk", "iata": "NFG", "longitude": 72.6500015258789}, "PCV": {"latitude": 27.0692005157471, "label": "Mulege", "iata": "PCV", "longitude": -111.96199798584}, "YVP": {"latitude": 58.0960998535156, "label": "Kuujjuaq", "iata": "YVP", "longitude": -68.4269027709961}, "KCA": {"latitude": 41.7181015014648, "label": "Aksu", "iata": "KCA", "longitude": 82.9869003295898}, "HUQ": {"latitude": 29.1100997924805, "label": "Hun", "iata": "HUQ", "longitude": 15.9656000137329}, "TBP": {"latitude": -3.55253005027771, "label": "Tumbes", "iata": "TBP", "longitude": -80.3814010620117}, "IGT": {"latitude": 43.3222999573, "label": "Nazran", "iata": "IGT", "longitude": 45.0125999451}, "ALM": {"latitude": 32.839900970459, "label": "Alamogordo", "iata": "ALM", "longitude": -105.990997314453}, "THK": {"latitude": 17.3999996185303, "label": "Tha Khaek", "iata": "THK", "longitude": 104.800003051758}, "LFK": {"latitude": 31.2339992523, "label": "Lufkin", "iata": "LFK", "longitude": -94.75}, "WNA": {"latitude": 60.690299987793, "label": "Bethel", "iata": "WNA", "longitude": -161.97900390625}, "CET": {"latitude": 47.0820999145508, "label": "Angers", "iata": "CET", "longitude": -0.877063989639282}, "AMX": {"latitude": -21.7383003234863, "label": "Tennant Creek", "iata": "AMX", "longitude": 135.242004394531}, "UMI": {"latitude": -13.2333002090454, "label": "Ollantaytambo", "iata": "UMI", "longitude": -70.753303527832}, "FKJ": {"latitude": 36.1427993774, "label": "Honshu", "iata": "FKJ", "longitude": 136.223999023}, "LDS": {"latitude": 47.7520555556, "label": "Yichun", "iata": "LDS", "longitude": 129.019125}, "GII": {"latitude": 11.4329996109009, "label": "Siguiri", "iata": "GII", "longitude": -9.16699981689453}, "MAA": {"latitude": 12.9900054931641, "label": "Chennai", "iata": "MAA", "longitude": 80.1692962646484}, "OXB": {"latitude": 11.8948001861572, "label": "Bissau", "iata": "OXB", "longitude": -15.6536998748779}, "WAQ": {"latitude": -18.7012732424, "label": "Antananarivo", "iata": "WAQ", "longitude": 44.6149206161}, "TMB": {"latitude": 25.6478996277, "label": "Miami", "iata": "TMB", "longitude": -80.432800293}, "MVQ": {"latitude": 53.9548988342285, "label": "Mogilev ", "iata": "MVQ", "longitude": 30.095100402832}, "QVP": {"latitude": -23.0925006866, "label": "Avare", "iata": "QVP", "longitude": -48.9874000549}, "FAZ": {"latitude": 28.8917999267578, "label": "Fasa", "iata": "FAZ", "longitude": 53.7233009338379}, "MET": {"latitude": -12.4441995621, "label": "Cairns", "iata": "MET", "longitude": 142.638000488}, "CCS": {"latitude": 10.6031169891, "label": "Caracas", "iata": "CCS", "longitude": -66.9905853271}, "LHK": {"latitude": 32.3894004821777, "label": "Xiangfan", "iata": "LHK", "longitude": 111.694999694824}, "RKU": {"latitude": -8.817000054, "label": "New Guinea", "iata": "RKU", "longitude": 146.5243833}, "CPU": {"latitude": -1.821111, "label": "Cururupu", "iata": "CPU", "longitude": -44.866944}, "XLN": {"latitude": 49.5957984924316, "label": "Chambry", "iata": "XLN", "longitude": 3.63166999816895}, "ZAM": {"latitude": 6.92242002487183, "label": "Zamboanga", "iata": "ZAM", "longitude": 122.059997558594}, "YIB": {"latitude": 48.7738990784, "label": "Thunder Bay", "iata": "YIB", "longitude": -91.6386032104}, "STX": {"latitude": 17.7019004821777, "label": "Christiansted", "iata": "STX", "longitude": -64.7985992431641}, "GCC": {"latitude": 44.3488998413, "label": "Gillette", "iata": "GCC", "longitude": -105.539001465}, "ITA": {"latitude": -3.1272599697113, "label": "Manaus", "iata": "ITA", "longitude": -58.481201171875}, "CYP": {"latitude": 12.072699546814, "label": "Tacloban", "iata": "CYP", "longitude": 124.544998168945}, "AFN": {"latitude": 42.8050994873, "label": "Jaffrey", "iata": "AFN", "longitude": -72.0029983521}, "YEB": {"latitude": 46.42029953, "label": "Sault Ste. Marie", "iata": "YEB", "longitude": -84.0922012329}, "KIH": {"latitude": 26.5261993408, "label": "Kish Island", "iata": "KIH", "longitude": 53.9802017212}, "FEJ": {"latitude": -8.1655797958374, "label": "Feijo", "iata": "FEJ", "longitude": -70.3529968261719}, "CYI": {"latitude": 23.461799621582, "label": "Kaohsiung", "iata": "CYI", "longitude": 120.392997741699}, "TWU": {"latitude": 4.32015991210938, "label": "Tawau", "iata": "TWU", "longitude": 118.127998352051}, "LAN": {"latitude": 42.7787017822266, "label": "Lansing", "iata": "LAN", "longitude": -84.58740234375}, "LPM": {"latitude": -16.4540004730225, "label": "Malekula", "iata": "LPM", "longitude": 167.822998046875}, "RCH": {"latitude": 11.5262, "label": "Riohacha", "iata": "RCH", "longitude": -72.926}, "RPR": {"latitude": 21.1804008484, "label": "Raipur", "iata": "RPR", "longitude": 81.7388000488}, "ELS": {"latitude": -33.0355987549, "label": "East London", "iata": "ELS", "longitude": 27.8258991241}, "DBS": {"latitude": 44.1665992737, "label": "Dubois", "iata": "DBS", "longitude": -112.225997925}, "JUT": {"latitude": 14.6526002883911, "label": "Tegucigalpa", "iata": "JUT", "longitude": -86.2202987670898}, "BYC": {"latitude": -21.9608993530273, "label": "Yacuiba", "iata": "BYC", "longitude": -63.6516990661621}, "MME": {"latitude": 54.5092010498047, "label": "Durham", "iata": "MME", "longitude": -1.42940998077393}, "HDM": {"latitude": 34.8692016601562, "label": "Hamedan", "iata": "HDM", "longitude": 48.5525016784668}, "BGC": {"latitude": 41.8577995300293, "label": "Porto", "iata": "BGC", "longitude": -6.70712995529175}, "MNS": {"latitude": -11.1370000839233, "label": "Mansa", "iata": "MNS", "longitude": 28.8726005554199}, "JAL": {"latitude": 19.4750995636, "label": "Xalapa", "iata": "JAL", "longitude": -96.7975006104}, "PKV": {"latitude": 57.7839012145996, "label": "Pskov", "iata": "PKV", "longitude": 28.3955993652344}, "TRS": {"latitude": 45.8274993896484, "label": "Trieste", "iata": "TRS", "longitude": 13.4722003936768}, "UMY": {"latitude": 50.8582992553711, "label": "Sumy", "iata": "UMY", "longitude": 34.7625007629395}, "JIM": {"latitude": 7.66609001159668, "label": "Jimma", "iata": "JIM", "longitude": 36.8166007995605}, "CRO": {"latitude": 36.1025009155, "label": "Corcoran", "iata": "CRO", "longitude": -119.595001221}, "FVL": {"latitude": -18.2833003998, "label": "Purnululu National Park", "iata": "FVL", "longitude": 128.417007446}, "YSN": {"latitude": 50.6828002929688, "label": "Salmon Arm", "iata": "YSN", "longitude": -119.228996276855}, "VDZ": {"latitude": 61.13389969, "label": "Valdez", "iata": "VDZ", "longitude": -146.2480011}, "MPT": {"latitude": -8.97224044799805, "label": "Maliana", "iata": "MPT", "longitude": 125.214996337891}, "MLI": {"latitude": 41.4485015869141, "label": "Moline", "iata": "MLI", "longitude": -90.5074996948242}, "BJZ": {"latitude": 38.891300201416, "label": "Badajoz", "iata": "BJZ", "longitude": -6.82133007049561}, "GOE": {"latitude": -5.527716614, "label": "New Britain Island", "iata": "GOE", "longitude": 151.5733333}, "QLD": {"latitude": 36.5036010742188, "label": "Algiers", "iata": "QLD", "longitude": 2.81416988372803}, "BGY": {"latitude": 45.673900604248, "label": "Bergamo", "iata": "BGY", "longitude": 9.70417022705078}, "TCS": {"latitude": 33.2369003296, "label": "Truth or Consequences", "iata": "TCS", "longitude": -107.272003174}, "NMR": {"latitude": -27.5583000183105, "label": "Bulloo River", "iata": "NMR", "longitude": 141.132995605469}, "KMX": {"latitude": 18.2973003387451, "label": "Abha", "iata": "KMX", "longitude": 42.8035011291504}, "CWT": {"latitude": -33.8446998596191, "label": "Sydney", "iata": "CWT", "longitude": 148.649002075195}, "BJI": {"latitude": 47.50939941, "label": "Bemidji", "iata": "BJI", "longitude": -94.93370056}, "FZO": {"latitude": 51.5194015503, "label": "Bristol", "iata": "FZO", "longitude": -2.59083008766}, "YPR": {"latitude": 54.2860984802, "label": "Prince Rupert", "iata": "YPR", "longitude": -130.445007324}, "DON": {"latitude": 17.6124000549, "label": "Flores", "iata": "DON", "longitude": -89.6884002686}, "KSM": {"latitude": 62.0605011, "label": "Mountain Village", "iata": "KSM", "longitude": -163.302002}, "TRO": {"latitude": -31.8885993958, "label": "Taree", "iata": "TRO", "longitude": 152.514007568}, "ORB": {"latitude": 59.2237014770508, "label": "Orebro", "iata": "ORB", "longitude": 15.0380001068115}, "KBF": {"latitude": -3.684, "label": "New Guinea", "iata": "KBF", "longitude": 138.479}, "SUV": {"latitude": -18.0433006286621, "label": "Nausori", "iata": "SUV", "longitude": 178.559005737305}, "YTR": {"latitude": 44.1189002990723, "label": "Toronto", "iata": "YTR", "longitude": -77.5280990600586}, "LMC": {"latitude": 2.17565, "label": "La Macarena", "iata": "LMC", "longitude": -73.78674}, "LOO": {"latitude": 33.7644004822, "label": "Laghouat", "iata": "LOO", "longitude": 2.92833995819}, "AOK": {"latitude": 35.4213981628418, "label": "Karpathos", "iata": "AOK", "longitude": 27.1459999084473}, "TKV": {"latitude": -17.3553009033203, "label": "Rikitea", "iata": "TKV", "longitude": -138.445007324219}, "TMY": {"latitude": -3.95000004768372, "label": "New Guinea", "iata": "TMY", "longitude": 138.417007446289}, "MUG": {"latitude": 26.897310256958, "label": "Mulege", "iata": "MUG", "longitude": -111.957550048828}, "MPC": {"latitude": -2.54186010360718, "label": "Sumatra", "iata": "MPC", "longitude": 101.087997436523}, "RIG": {"latitude": -32.081699, "label": "Rio Grande", "iata": "RIG", "longitude": -52.163299}, "ADX": {"latitude": 56.3728981018066, "label": "St Andrews", "iata": "ADX", "longitude": -2.86843991279602}, "BPG": {"latitude": -15.8613004684, "label": "Aragarcas", "iata": "BPG", "longitude": -52.3889007568}, "EMD": {"latitude": -23.5674991608, "label": "Emerald", "iata": "EMD", "longitude": 148.179000854}, "TGG": {"latitude": 5.38263988494873, "label": "Kuala Terengganu", "iata": "TGG", "longitude": 103.102996826172}, "APV": {"latitude": 34.5752983093, "label": "Apple Valley", "iata": "APV", "longitude": -117.185997009}, "GAS": {"latitude": -0.463508009910583, "label": "Garissa", "iata": "GAS", "longitude": 39.6483001708984}, "DWN": {"latitude": 35.4491996765, "label": "Oklahoma City", "iata": "DWN", "longitude": -97.5330963135}, "MTV": {"latitude": -13.6660003662, "label": "Torba", "iata": "MTV", "longitude": 167.712005615}, "ZFN": {"latitude": 64.9096984863281, "label": "Norman Wells", "iata": "ZFN", "longitude": -125.572998046875}, "MXT": {"latitude": -18.0499992370605, "label": "Antananarivo", "iata": "MXT", "longitude": 44.0330009460449}, "TFF": {"latitude": -3.38294005394, "label": "Tefe", "iata": "TFF", "longitude": -64.7240982056}, "GLC": {"latitude": 6.98443984985, "label": "Galcaio", "iata": "GLC", "longitude": 46.4213981628}, "ORX": {"latitude": -1.71407997608185, "label": "Oriximina", "iata": "ORX", "longitude": -55.8362007141113}, "SLM": {"latitude": 40.9520988464355, "label": "Salamanca", "iata": "SLM", "longitude": -5.50198984146118}, "HVN": {"latitude": 41.26369858, "label": "New Haven", "iata": "HVN", "longitude": -72.88680267}, "BOW": {"latitude": 27.9433994293, "label": "Bartow", "iata": "BOW", "longitude": -81.7834014893}, "BHQ": {"latitude": -32.0013999939, "label": "Broken Hill", "iata": "BHQ", "longitude": 141.472000122}, "EKT": {"latitude": 59.3511009216309, "label": "Eskilstuna", "iata": "EKT", "longitude": 16.7084007263184}, "DLG": {"latitude": 59.04470062, "label": "Dillingham", "iata": "DLG", "longitude": -158.5050049}, "ABX": {"latitude": -36.067798614502, "label": "Albury", "iata": "ABX", "longitude": 146.957992553711}, "AJU": {"latitude": -10.984000206, "label": "Aracaju", "iata": "AJU", "longitude": -37.0703010559}, "PPQ": {"latitude": -40.9047012329102, "label": "Wellington", "iata": "PPQ", "longitude": 174.988998413086}, "TPA": {"latitude": 27.942850113405747, "label": "Tampa", "iata": "TPA", "longitude": -82.6103019725}, "XIY": {"latitude": 34.4471015930176, "label": "Xianyang", "iata": "XIY", "longitude": 108.751998901367}, "ACX": {"latitude": 25.0863888889, "label": "Guiyang", "iata": "ACX", "longitude": 104.959444444}, "SDI": {"latitude": -5.62713888889, "label": "New Guinea", "iata": "SDI", "longitude": 146.462777778}, "RAV": {"latitude": 6.31684, "label": "Cravo Norte", "iata": "RAV", "longitude": -70.2107}, "YPY": {"latitude": 58.7672004699707, "label": "Fort McMurray", "iata": "YPY", "longitude": -111.116996765137}, "QSC": {"latitude": -21.8754005432129, "label": "Sao Carlos", "iata": "QSC", "longitude": -47.9037017822266}, "SQT": {"latitude": -10.5627777778, "label": "New Guinea", "iata": "SQT", "longitude": 150.690694444}, "ZGR": {"latitude": 52.0456008911133, "label": "Winnipeg", "iata": "ZGR", "longitude": -95.4657974243164}, "BCD": {"latitude": 10.7763996124268, "label": "Negros", "iata": "BCD", "longitude": 123.014999389648}, "QMM": {"latitude": 43.9860000610352, "label": "Florence", "iata": "QMM", "longitude": 10.1428003311157}, "FDH": {"latitude": 47.6712989807, "label": "Friedrichshafen", "iata": "FDH", "longitude": 9.51148986816}, "SJP": {"latitude": -20.8166007996, "label": "Sao Jose do Rio Preto", "iata": "SJP", "longitude": -49.40650177}, "ADG": {"latitude": 41.8676986694, "label": "Adrian", "iata": "ADG", "longitude": -84.0773010254}, "BHF": {"latitude": 6.55, "label": "Quibdo", "iata": "BHF", "longitude": -77.3263}, "KUY": {"latitude": -7.420347, "label": "New Guinea", "iata": "KUY", "longitude": 143.121811}, "ERM": {"latitude": -27.6618995666504, "label": "Erechim", "iata": "ERM", "longitude": -52.2682991027832}, "ETR": {"latitude": -3.43515992165, "label": "Santa Rosa", "iata": "ETR", "longitude": -79.9777984619}, "YSB": {"latitude": 46.625, "label": "Sudbury", "iata": "YSB", "longitude": -80.7988967895508}, "EME": {"latitude": 53.3911094665527, "label": "Emden", "iata": "EME", "longitude": 7.22749996185303}, "RMB": {"latitude": 24.2329998016, "label": "Abu Dhabi", "iata": "RMB", "longitude": 55.783000946}, "YVA": {"latitude": -11.6222500801094, "label": "Moroni", "iata": "YVA", "longitude": 43.257900238051}, "BNU": {"latitude": -26.8306007385254, "label": "Blumenau", "iata": "BNU", "longitude": -49.0903015136719}, "GAX": {"latitude": -2.71016001701355, "label": "Gamba", "iata": "GAX", "longitude": 9.96061992645264}, "IFH": {"latitude": 32.9289016723633, "label": "Isfahan", "iata": "IFH", "longitude": 51.5611000061035}, "PQC": {"latitude": 10.2270002365, "label": "Phu Quoc", "iata": "PQC", "longitude": 103.967002869}, "ADY": {"latitude": -22.6790008545, "label": "Polokwane", "iata": "ADY", "longitude": 29.0555000305}, "FKQ": {"latitude": -2.92019009590149, "label": "New Guinea", "iata": "FKQ", "longitude": 132.266998291016}, "PDZ": {"latitude": 9.97924041748047, "label": "Tucupita", "iata": "PDZ", "longitude": -62.2285995483398}, "TGS": {"latitude": -24.5205993652344, "label": "Chokwe", "iata": "TGS", "longitude": 32.9653015136719}, "TDZ": {"latitude": 41.56489944, "label": "Toledo", "iata": "TDZ", "longitude": -83.4822998}, "SZR": {"latitude": 42.376701355, "label": "Stara Zagora", "iata": "SZR", "longitude": 25.6551990509}, "YEY": {"latitude": 48.5638999938965, "label": "Amos", "iata": "YEY", "longitude": -78.2497024536133}, "ZEM": {"latitude": 52.2263984680176, "label": "Waskaganish", "iata": "ZEM", "longitude": -78.5224990844727}, "RTM": {"latitude": 51.9569015503, "label": "Rotterdam", "iata": "RTM", "longitude": 4.43722009659}, "AHO": {"latitude": 40.6320991516113, "label": "Alghero", "iata": "AHO", "longitude": 8.29076957702637}, "YHZ": {"latitude": 44.8807983398, "label": "Halifax", "iata": "YHZ", "longitude": -63.5085983276}, "CKO": {"latitude": -23.1525001525879, "label": "Londrina", "iata": "CKO", "longitude": -50.6025009155273}, "UBA": {"latitude": -19.7647228240967, "label": "Uberaba", "iata": "UBA", "longitude": -47.9661102294922}, "IES": {"latitude": 51.2936096191, "label": "Riesa", "iata": "IES", "longitude": 13.3561105728}, "NAW": {"latitude": 6.51991987228394, "label": "Narathiwat", "iata": "NAW", "longitude": 101.74299621582}, "GGC": {"latitude": -12.6398773193, "label": "Luau", "iata": "GGC", "longitude": 22.5868206024}, "WEX": {"latitude": 52.3333320617676, "label": "Loch Garman", "iata": "WEX", "longitude": -6.46666717529297}, "PMV": {"latitude": 10.9126033782959, "label": "Nueva Esparta", "iata": "PMV", "longitude": -63.9665985107422}, "HOG": {"latitude": 20.7856006622314, "label": "Holguin", "iata": "HOG", "longitude": -76.3151016235352}, "UIQ": {"latitude": -17.5400009155273, "label": "Efate Island", "iata": "UIQ", "longitude": 168.442001342773}, "ACD": {"latitude": 8.51667, "label": "Acandi", "iata": "ACD", "longitude": -77.3}, "KER": {"latitude": 30.2744007111, "label": "Kerman", "iata": "KER", "longitude": 56.9510993958}, "CBR": {"latitude": -35.3069000244141, "label": "Canberra", "iata": "CBR", "longitude": 149.195007324219}, "KSH": {"latitude": 34.3459014893, "label": "Kermanshah", "iata": "KSH", "longitude": 47.1581001282}, "TGU": {"latitude": 14.0608997344971, "label": "Tegucigalpa", "iata": "TGU", "longitude": -87.2172012329102}, "RVO": {"latitude": -27.5471992492676, "label": "Kimberley", "iata": "RVO", "longitude": 24.1725006103516}, "WNN": {"latitude": 52.8939018249512, "label": "Thunder Bay", "iata": "WNN", "longitude": -89.2891998291016}, "YQL": {"latitude": 49.6302986145, "label": "Lethbridge", "iata": "YQL", "longitude": -112.800003052}, "CBY": {"latitude": -19.4794006348, "label": "Mount Isa", "iata": "CBY", "longitude": 140.927001953}, "TRN": {"latitude": 45.2008018494, "label": "Turin", "iata": "TRN", "longitude": 7.64963006973}, "BIH": {"latitude": 37.3731002808, "label": "Bishop", "iata": "BIH", "longitude": -118.363998413}, "WTZ": {"latitude": -36.8316993713379, "label": "Auckland", "iata": "WTZ", "longitude": 175.679000854492}, "FMO": {"latitude": 52.134601593, "label": "Munster", "iata": "FMO", "longitude": 7.68483018875}, "BJC": {"latitude": 39.90879822, "label": "Denver", "iata": "BJC", "longitude": -105.1169968}, "WAA": {"latitude": 65.6225967407, "label": "Wales", "iata": "WAA", "longitude": -168.095001221}, "RKO": {"latitude": -2.0991199016571, "label": "Sumatra", "iata": "RKO", "longitude": 99.7006988525391}, "CVT": {"latitude": 52.3697013855, "label": "Coventry", "iata": "CVT", "longitude": -1.47971999645}, "TGO": {"latitude": 43.5567016601562, "label": "Tongliao", "iata": "TGO", "longitude": 122.199996948242}, "CWA": {"latitude": 44.9262008667, "label": "Wausau", "iata": "CWA", "longitude": -89.6266021729}, "GHF": {"latitude": 49.6480560303, "label": "Giebelstadt", "iata": "GHF", "longitude": 9.96638870239}, "NTR": {"latitude": 25.8656005859375, "label": "Monterrey", "iata": "NTR", "longitude": -100.236999511719}, "CNX": {"latitude": 18.7667999268, "label": "Chiang Mai", "iata": "CNX", "longitude": 98.962600708}, "ORM": {"latitude": 52.3053016663, "label": "London", "iata": "ORM", "longitude": -0.7930560112}, "TEG": {"latitude": 11.8000001907349, "label": "Tenkodogo", "iata": "TEG", "longitude": -0.367000013589859}, "HOF": {"latitude": 25.2852993011475, "label": "Dammam", "iata": "HOF", "longitude": 49.4851989746094}, "HND": {"latitude": 35.5522994995117, "label": "Tokyo", "iata": "HND", "longitude": 139.779998779297}, "CCW": {"latitude": -33.6666984558105, "label": "Adelaide", "iata": "CCW", "longitude": 136.891998291016}, "ABB": {"latitude": 6.20333333333, "label": "Asaba", "iata": "ABB", "longitude": 6.65888888889}, "USH": {"latitude": -54.8433, "label": "Ushuaia", "iata": "USH", "longitude": -68.2958}, "RZS": {"latitude": 26.9661998748779, "label": "Karachi", "iata": "RZS", "longitude": 68.8780975341797}, "BAK": {"latitude": 40.481520497698455, "label": "Baku", "iata": "BAK", "longitude": 50.0117530822629}, "YHD": {"latitude": 49.8316993713379, "label": "Thunder Bay", "iata": "YHD", "longitude": -92.7442016601562}, "YXT": {"latitude": 54.4684982299805, "label": "Terrace", "iata": "YXT", "longitude": -128.57600402832}, "ABL": {"latitude": 67.106300354, "label": "Selawik", "iata": "ABL", "longitude": -157.856994629}, "QBX": {"latitude": -3.67888998985291, "label": "Sobral", "iata": "QBX", "longitude": -40.336799621582}, "WIC": {"latitude": 58.4589004516602, "label": "Inverness", "iata": "WIC", "longitude": -3.09306001663208}, "OCV": {"latitude": 8.31506, "label": "Ocana", "iata": "OCV", "longitude": -73.3583}, "CJJ": {"latitude": 36.7165985107, "label": "Seoul", "iata": "CJJ", "longitude": 127.499000549}, "IXJ": {"latitude": 32.6890983582, "label": "Jammu", "iata": "IXJ", "longitude": 74.8374023438}, "BMV": {"latitude": 12.668299675, "label": "Buon Ma Thuot", "iata": "BMV", "longitude": 108.120002747}, "CPO": {"latitude": -27.2968997955322, "label": "Copiapo", "iata": "CPO", "longitude": -70.4131011962891}, "ARG": {"latitude": 36.1246667, "label": "Walnut Ridge", "iata": "ARG", "longitude": -90.9251111}, "YAN": {"latitude": 0.782999992370605, "label": "Yangambi", "iata": "YAN", "longitude": 24.4669990539551}, "AGW": {"latitude": -12.1456003189087, "label": "Cairns", "iata": "AGW", "longitude": 142.149002075195}, "MCW": {"latitude": 43.1577987671, "label": "Mason City", "iata": "MCW", "longitude": -93.3312988281}, "TJB": {"latitude": 1.04999995231628, "label": "Singapore", "iata": "TJB", "longitude": 103.383003234863}, "NRR": {"latitude": 18.245278, "label": "Ceiba", "iata": "NRR", "longitude": -65.643333}, "BAG": {"latitude": 16.3750991821289, "label": "Baguio", "iata": "BAG", "longitude": 120.620002746582}, "SVD": {"latitude": 13.1443004608154, "label": "Kingstown ", "iata": "SVD", "longitude": -61.2108993530273}, "SNB": {"latitude": -11.4228000640869, "label": "Manatuto", "iata": "SNB", "longitude": 130.654006958008}, "MOO": {"latitude": -28.0993995666504, "label": "Strzelecki Desert", "iata": "MOO", "longitude": 140.197006225586}, "LSA": {"latitude": -8.50582027435303, "label": "Samarai", "iata": "LSA", "longitude": 151.080993652344}, "WUZ": {"latitude": 23.4566993713379, "label": "Wuzhou", "iata": "WUZ", "longitude": 111.248001098633}, "BQB": {"latitude": -33.6884231567, "label": "Bunbury", "iata": "BQB", "longitude": 115.401596069}, "LTV": {"latitude": -17.0482997894, "label": "Cairns", "iata": "LTV", "longitude": 141.37600708}, "YPX": {"latitude": 60.0505981445312, "label": "Puvirnituq", "iata": "YPX", "longitude": -77.2869033813477}, "RST": {"latitude": 43.9082984924316, "label": "Rochester", "iata": "RST", "longitude": -92.5}, "YAA": {"latitude": 52.4524993896484, "label": "Quesnel", "iata": "YAA", "longitude": -125.303001403809}, "MMO": {"latitude": 15.1559000015259, "label": "Vila do Maio", "iata": "MMO", "longitude": -23.2136993408203}, "SSG": {"latitude": 3.75527000427246, "label": "Malabo", "iata": "SSG", "longitude": 8.70872020721436}, "KUV": {"latitude": 35.9038009643555, "label": "Kunsan", "iata": "KUV", "longitude": 126.615997314453}, "SAQ": {"latitude": 25.0538005828857, "label": "Andros Island", "iata": "SAQ", "longitude": -78.0490036010742}, "CSD": {"latitude": -17.9479999542236, "label": "Tennant Creek", "iata": "CSD", "longitude": 135.916000366211}, "MGH": {"latitude": -30.8574008942, "label": "Margate", "iata": "MGH", "longitude": 30.343000412}, "AUT": {"latitude": -8.21051979064941, "label": "Atauro Island", "iata": "AUT", "longitude": 125.615997314453}, "LHS": {"latitude": -46.5382995605, "label": "Comodoro Rivadavia", "iata": "LHS", "longitude": -68.9653015137}, "LUK": {"latitude": 39.10329819, "label": "Cincinnati", "iata": "LUK", "longitude": -84.41860199}, "PLJ": {"latitude": 16.5369567871094, "label": "Placencia", "iata": "PLJ", "longitude": -88.3615112304688}, "SHX": {"latitude": 62.6922988892, "label": "Galena", "iata": "SHX", "longitude": -159.569000244}, "HKN": {"latitude": -5.46217012405396, "label": "New Britain Island", "iata": "HKN", "longitude": 150.404998779297}, "ELP": {"latitude": 31.80719948, "label": "El Paso", "iata": "ELP", "longitude": -106.3779984}, "WSZ": {"latitude": -41.7380981445312, "label": "Westport", "iata": "WSZ", "longitude": 171.580993652344}, "INY": {"latitude": -24.7777004241943, "label": "Nelspruit", "iata": "INY", "longitude": 31.3854999542236}, "SQW": {"latitude": 56.5502014160156, "label": "Skive", "iata": "SQW", "longitude": 9.17298030853271}, "YAH": {"latitude": 53.754699707, "label": "Chibougamau", "iata": "YAH", "longitude": -73.6753005981}, "KGX": {"latitude": 62.8945999146, "label": "Galena", "iata": "KGX", "longitude": -160.065002441}, "KEI": {"latitude": -6.5418, "label": "New Guinea", "iata": "KEI", "longitude": 139.3318}, "ZBE": {"latitude": 49.9282989501953, "label": "Ostrava", "iata": "ZBE", "longitude": 18.0783004760742}, "UYU": {"latitude": -20.4463005066, "label": "Potosi", "iata": "UYU", "longitude": -66.8483963013}, "MRR": {"latitude": -4.37823009491, "label": "Macara", "iata": "MRR", "longitude": -79.9410018921}, "TJG": {"latitude": -2.21655988693, "label": "Borneo ", "iata": "TJG", "longitude": 115.435997009}, "TCY": {"latitude": -19.9713, "label": "Opuwo", "iata": "TCY", "longitude": 13.0249}, "XFW": {"latitude": 53.5352783203125, "label": "Hamburg", "iata": "XFW", "longitude": 9.83555603027344}, "MYI": {"latitude": -9.91666984558105, "label": "Daru", "iata": "MYI", "longitude": 144.054992675781}, "GMS": {"latitude": -2.100276, "label": "Sao Luis", "iata": "GMS", "longitude": -44.617221}, "HDS": {"latitude": -24.3686008453, "label": "Phalaborwa", "iata": "HDS", "longitude": 31.0487003326}, "SNO": {"latitude": 17.1951007843018, "label": "Sakon Nakhon", "iata": "SNO", "longitude": 104.119003295898}, "NAR": {"latitude": 6.21002, "label": "Medellin", "iata": "NAR", "longitude": -74.5906}, "GGL": {"latitude": 8.333333, "label": "Unguia", "iata": "GGL", "longitude": -77.083333}, "SBN": {"latitude": 41.7086982727051, "label": "South Bend", "iata": "SBN", "longitude": -86.3172988891602}, "YYC": {"latitude": 51.113899230957, "label": "Calgary", "iata": "YYC", "longitude": -114.019996643066}, "YMO": {"latitude": 51.2910995483398, "label": "Timmins", "iata": "YMO", "longitude": -80.6078033447266}, "TNC": {"latitude": 65.56310272, "label": "Nome", "iata": "TNC", "longitude": -167.9219971}, "GNM": {"latitude": -14.2082004547119, "label": "Guanambi", "iata": "GNM", "longitude": -42.7461013793945}, "TYL": {"latitude": -4.57664012908936, "label": "Talara", "iata": "TYL", "longitude": -81.2540969848633}, "KOR": {"latitude": -7.83466666667, "label": "New Guinea", "iata": "KOR", "longitude": 146.5335}, "OSD": {"latitude": 63.1944007873535, "label": "Ostersund", "iata": "OSD", "longitude": 14.5003004074097}, "KYZ": {"latitude": 51.6693992614746, "label": "Kyzyl", "iata": "KYZ", "longitude": 94.4005966186523}, "PRC": {"latitude": 34.65449905, "label": "Prescott", "iata": "PRC", "longitude": -112.4199982}, "ILK": {"latitude": -19.5830001831055, "label": "Toamasina", "iata": "ILK", "longitude": 48.8030014038086}, "YWJ": {"latitude": 65.2110977172852, "label": "Norman Wells", "iata": "YWJ", "longitude": -123.435997009277}, "MBD": {"latitude": -25.7984008789, "label": "Mmabatho", "iata": "MBD", "longitude": 25.5480003357}, "UDJ": {"latitude": 48.6343002319336, "label": "Uzhhorod", "iata": "UDJ", "longitude": 22.2633991241455}, "XSO": {"latitude": 7.71048132775, "label": "Zamboanga", "iata": "XSO", "longitude": 122.161188126}, "DAA": {"latitude": 38.7150001526, "label": "Fairfax", "iata": "DAA", "longitude": -77.1809997559}, "NKY": {"latitude": -4.21700000763, "label": "Dolisie", "iata": "NKY", "longitude": 13.2829999924}, "LSI": {"latitude": 59.8788986206055, "label": "Lerwick", "iata": "LSI", "longitude": -1.29556000232697}, "IQM": {"latitude": 38.1493988037109, "label": "Korla", "iata": "IQM", "longitude": 85.5327987670898}, "RNM": {"latitude": 21.3829994202, "label": "Muscat", "iata": "RNM", "longitude": 57.0499992371}, "NYT": {"latitude": 19.623500824, "label": "Naypyitaw", "iata": "NYT", "longitude": 96.2009963989}, "BGH": {"latitude": 16.6333141326904, "label": "Nouakchott", "iata": "BGH", "longitude": -14.2000007629395}, "CRJ": {"latitude": -31.8943996429443, "label": "Adelaide", "iata": "CRJ", "longitude": 132.296005249023}, "LEA": {"latitude": -22.2355995178, "label": "Carnarvon", "iata": "LEA", "longitude": 114.088996887}, "PKP": {"latitude": -14.8094997406006, "label": "Puka-Puka", "iata": "PKP", "longitude": -138.813003540039}, "ROR": {"latitude": 7.36765003204346, "label": "Kloulklubed", "iata": "ROR", "longitude": 134.544006347656}, "BUI": {"latitude": -3.6822, "label": "New Guinea", "iata": "BUI", "longitude": 138.6755}, "OCC": {"latitude": -0.46288600564003, "label": "Orellana", "iata": "OCC", "longitude": -76.9868011474609}, "MRY": {"latitude": 36.5870018005371, "label": "Monterey", "iata": "MRY", "longitude": -121.843002319336}, "DRB": {"latitude": -17.3700008392334, "label": "Broome", "iata": "DRB", "longitude": 123.661003112793}, "CDQ": {"latitude": -18.2250003814697, "label": "Gilbert-Einasleigh River", "iata": "CDQ", "longitude": 142.257995605469}, "LQN": {"latitude": 34.9850006103516, "label": "Herat", "iata": "LQN", "longitude": 63.1178016662598}, "DYU": {"latitude": 38.5433006287, "label": "Dushanbe", "iata": "DYU", "longitude": 68.8249969482}, "LHI": {"latitude": -3.0795, "label": "New Guinea", "iata": "LHI", "longitude": 139.952}, "NOO": {"latitude": -9.254455, "label": "New Guinea", "iata": "NOO", "longitude": 147.621352}, "PDT": {"latitude": 45.695098877, "label": "Pendleton", "iata": "PDT", "longitude": -118.841003418}, "ROK": {"latitude": -23.3819007874, "label": "Rockhampton", "iata": "ROK", "longitude": 150.475006104}, "WHO": {"latitude": -43.3630981445312, "label": "Christchurch", "iata": "WHO", "longitude": 170.134002685547}, "ACC": {"latitude": 5.60518980026245, "label": "Accra", "iata": "ACC", "longitude": -0.166786000132561}, "SIZ": {"latitude": -2.99944444444, "label": "New Guinea", "iata": "SIZ", "longitude": 142.0445}, "YCW": {"latitude": 49.1528015137, "label": "Chilliwack", "iata": "YCW", "longitude": -121.939002991}, "KML": {"latitude": -19.375, "label": "Mount Isa", "iata": "KML", "longitude": 140.057006835938}, "BPM": {"latitude": 17.4531002045, "label": "Hyderabad", "iata": "BPM", "longitude": 78.4675979614}, "APS": {"latitude": -16.2292003632, "label": "Anapolis", "iata": "APS", "longitude": -48.9642982483}, "OCJ": {"latitude": 18.4041996002197, "label": "Ocho Rios", "iata": "OCJ", "longitude": -76.9690017700195}, "ACK": {"latitude": 41.25310135, "label": "Town of Nantucket", "iata": "ACK", "longitude": -70.06020355}, "NCG": {"latitude": 30.3973999023438, "label": "Ciudad Juarez", "iata": "NCG", "longitude": -107.875}, "AIA": {"latitude": 42.0531997681, "label": "Alliance", "iata": "AIA", "longitude": -102.804000854}, "MAH": {"latitude": 39.8625984191895, "label": "Minorca Island", "iata": "MAH", "longitude": 4.21864986419678}, "GEL": {"latitude": -28.2817001342773, "label": "Santo Angelo", "iata": "GEL", "longitude": -54.1691017150879}, "CFO": {"latitude": -10.6344003677368, "label": "Sao Miguel do Araguaia", "iata": "CFO", "longitude": -51.5635986328125}, "CXA": {"latitude": 7.62551021575928, "label": "Ciudad Bolivar", "iata": "CXA", "longitude": -66.1628036499023}, "LOD": {"latitude": -15.3066997528, "label": "Ambae Island", "iata": "LOD", "longitude": 167.966995239}, "CCH": {"latitude": -46.5833015441895, "label": "Coihaique", "iata": "CCH", "longitude": -71.6874008178711}, "DMD": {"latitude": -17.940299987793, "label": "Boodjamulla National Park", "iata": "DMD", "longitude": 138.822006225586}, "MOI": {"latitude": -19.8425006866455, "label": "Avarua", "iata": "MOI", "longitude": -157.703002929688}, "ORP": {"latitude": -21.2667007446289, "label": "Orapa", "iata": "ORP", "longitude": 25.3166999816895}, "BUO": {"latitude": 9.5275, "label": "Burao", "iata": "BUO", "longitude": 45.5549}, "RDV": {"latitude": 61.7881011963, "label": "Aniak", "iata": "RDV", "longitude": -157.350006104}, "TZX": {"latitude": 40.9950981140137, "label": "Trabzon", "iata": "TZX", "longitude": 39.7896995544434}, "AUH": {"latitude": 24.43065071105955, "label": "Abu Dhabi", "iata": "AUH", "longitude": 54.554599761962905}, "AZN": {"latitude": 40.7276992798, "label": "Andijon", "iata": "AZN", "longitude": 72.2939987183}, "TUV": {"latitude": 9.08899402618408, "label": "Tucupita", "iata": "TUV", "longitude": -62.0941734313965}, "VAV": {"latitude": -18.5853004455566, "label": "Nuku alofa", "iata": "VAV", "longitude": -173.962005615234}, "YZP": {"latitude": 53.2542991638, "label": "Prince Rupert", "iata": "YZP", "longitude": -131.813995361}, "TOY": {"latitude": 36.6483001708984, "label": "Toyama", "iata": "TOY", "longitude": 137.188003540039}, "GLP": {"latitude": -5.2808, "label": "New Guinea", "iata": "GLP", "longitude": 141.5411}, "ZCO": {"latitude": -38.7667999267578, "label": "Temuco", "iata": "ZCO", "longitude": -72.6371002197266}, "CEH": {"latitude": -10.5500001907, "label": "Lake Malawi", "iata": "CEH", "longitude": 33.7999992371}, "BMI": {"latitude": 40.47710037, "label": "Bloomington Normal", "iata": "BMI", "longitude": -88.91590118}, "ATJ": {"latitude": -19.8392214824, "label": "Antsirabe", "iata": "ATJ", "longitude": 47.0637130737}, "TGC": {"latitude": 2.17783999443054, "label": "Borneo ", "iata": "TGC", "longitude": 111.202003479004}, "YOH": {"latitude": 54.9333000183105, "label": "Thompson", "iata": "YOH", "longitude": -95.2789001464844}, "STH": {"latitude": -17.8500003814697, "label": "Gilbert-Einasleigh River", "iata": "STH", "longitude": 142.567001342773}, "RGH": {"latitude": 25.2616996765137, "label": "Balurghat", "iata": "RGH", "longitude": 88.7956008911133}, "LMZ": {"latitude": -10.7506, "label": "Pemba", "iata": "LMZ", "longitude": 40.4702}, "DOX": {"latitude": -29.2999992371, "label": "Geraldton", "iata": "DOX", "longitude": 114.932998657}, "TKM": {"latitude": 17.2263889312744, "label": "Flores", "iata": "TKM", "longitude": -89.6050033569336}, "GGW": {"latitude": 48.2125015258789, "label": "Glasgow", "iata": "GGW", "longitude": -106.61499786377}, "IUL": {"latitude": -3.7051, "label": "New Guinea", "iata": "IUL", "longitude": 138.2002}, "ACE": {"latitude": 28.945499420166, "label": "Lanzarote", "iata": "ACE", "longitude": -13.6051998138428}, "LUD": {"latitude": -26.6874008178711, "label": "Luderitz", "iata": "LUD", "longitude": 15.2428998947144}, "MFU": {"latitude": -13.2588996887207, "label": "Chipata", "iata": "MFU", "longitude": 31.9365997314453}, "CHC": {"latitude": -43.4893989562988, "label": "Christchurch", "iata": "CHC", "longitude": 172.531997680664}, "VLY": {"latitude": 53.2481002808, "label": "Holyhead", "iata": "VLY", "longitude": -4.53533983231}, "LSP": {"latitude": 11.7807750701904, "label": "Punto Fijo", "iata": "LSP", "longitude": -70.151496887207}, "VTZ": {"latitude": 17.721200943, "label": "Vishakhapatnam", "iata": "VTZ", "longitude": 83.2245025635}, "PPN": {"latitude": 2.4544, "label": "Popayan", "iata": "PPN", "longitude": -76.6093}, "HKV": {"latitude": 41.8717994689941, "label": "Haskovo", "iata": "HKV", "longitude": 25.6047992706299}, "MXN": {"latitude": 48.6031990051, "label": "Brest", "iata": "MXN", "longitude": -3.81577992439}, "GOZ": {"latitude": 43.1514015197754, "label": "Veliko Turnovo", "iata": "GOZ", "longitude": 25.7129001617432}, "BRR": {"latitude": 57.0228004455566, "label": "Glasgow", "iata": "BRR", "longitude": -7.44305992126465}, "TGK": {"latitude": 47.2000007629, "label": "Taganrog", "iata": "TGK", "longitude": 38.8499984741}, "CNZ": {"latitude": -13.710599899292, "label": "Luena", "iata": "CNZ", "longitude": 19.8610992431641}, "LGY": {"latitude": 10.1239995956421, "label": "Lagunillas", "iata": "LGY", "longitude": -71.2379989624023}, "CKS": {"latitude": -6.11527776718, "label": "Maraba", "iata": "CKS", "longitude": -50.0013885498}, "MHQ": {"latitude": 60.122200012207, "label": "Mariehamn", "iata": "MHQ", "longitude": 19.8981990814209}, "YHT": {"latitude": 60.7891998291016, "label": "Haines Junction", "iata": "YHT", "longitude": -137.546005249023}, "KIP": {"latitude": 33.85779953, "label": "Wichita Falls", "iata": "KIP", "longitude": -98.49040222}, "YQH": {"latitude": 60.1164016723633, "label": "Watson Lake", "iata": "YQH", "longitude": -128.822006225586}, "KOV": {"latitude": 53.3291015625, "label": "Kokshetau", "iata": "KOV", "longitude": 69.594596862793}, "DHA": {"latitude": 26.2653999329, "label": "Dhahran", "iata": "DHA", "longitude": 50.1520004272}, "PIP": {"latitude": 57.50289916995, "label": "Dillingham", "iata": "PIP", "longitude": -157.6560058595}, "GJT": {"latitude": 39.1223983765, "label": "Grand Junction", "iata": "GJT", "longitude": -108.527000427}, "RDG": {"latitude": 40.3785018920898, "label": "Philadelphia", "iata": "RDG", "longitude": -75.965202331543}, "CIQ": {"latitude": 14.83092, "label": "Chiquimula", "iata": "CIQ", "longitude": -89.520938}, "RLA": {"latitude": 37.9356994628906, "label": "Rolla", "iata": "RLA", "longitude": -91.8134994506836}, "KTW": {"latitude": 50.4743003845, "label": "Katowice", "iata": "KTW", "longitude": 19.0799999237}, "YOJ": {"latitude": 58.6213989257812, "label": "High Level", "iata": "YOJ", "longitude": -117.165000915527}, "ZOS": {"latitude": -40.611198425293, "label": "Osorno", "iata": "ZOS", "longitude": -73.0609970092773}, "MVO": {"latitude": 12.1669998168945, "label": "Ati", "iata": "MVO", "longitude": 18.6749992370605}, "ENI": {"latitude": 11.2019996643066, "label": "Taytay", "iata": "ENI", "longitude": 119.416999816895}, "SJB": {"latitude": -13.0528001785278, "label": "San Ramon", "iata": "SJB", "longitude": -64.6616973876953}, "YIW": {"latitude": 29.3446998596, "label": "Yiwu", "iata": "YIW", "longitude": 120.031997681}, "GBZ": {"latitude": -36.2414016723633, "label": "Great Barrier Island", "iata": "GBZ", "longitude": 175.47200012207}, "PNZ": {"latitude": -9.3624095916748, "label": "Petrolina", "iata": "PNZ", "longitude": -40.5690994262695}, "GCM": {"latitude": 19.2928009033, "label": "Grand Cayman", "iata": "GCM", "longitude": -81.3576965332}, "FLM": {"latitude": -22.3600006103516, "label": "Filadelfia", "iata": "FLM", "longitude": -60.0499992370605}, "TOB": {"latitude": 31.8610000610352, "label": "Tobruk", "iata": "TOB", "longitude": 23.9069995880127}, "UNI": {"latitude": 12.6001348495483, "label": "Union Island", "iata": "UNI", "longitude": -61.4119453430176}, "CDI": {"latitude": -20.8342990875, "label": "Cachoeiro de Itapemirim", "iata": "CDI", "longitude": -41.1856002808}, "YZF": {"latitude": 62.4627990722656, "label": "Yellowknife", "iata": "YZF", "longitude": -114.440002441406}, "HLS": {"latitude": -41.3367004394531, "label": "Tasmania Island", "iata": "HLS", "longitude": 148.281997680664}, "MXI": {"latitude": 6.94936990737915, "label": "Davao", "iata": "MXI", "longitude": 126.273002624512}, "WLO": {"latitude": -16.6299991607666, "label": "Keep River National Park", "iata": "WLO", "longitude": 129.320007324219}, "TFB": {"latitude": -5.1173, "label": "New Guinea", "iata": "TFB", "longitude": 141.419}, "DUJ": {"latitude": 41.17829895, "label": "Duboistown", "iata": "DUJ", "longitude": -78.8986969}, "LXR": {"latitude": 25.670999527, "label": "Luxor", "iata": "LXR", "longitude": 32.7066001892}, "VAR": {"latitude": 43.2321014404297, "label": "Varna", "iata": "VAR", "longitude": 27.8250999450684}, "ZFD": {"latitude": 59.334400177002, "label": "Fort McMurray", "iata": "ZFD", "longitude": -107.181999206543}, "SZS": {"latitude": -46.8997001648, "label": "Stewart Island", "iata": "SZS", "longitude": 168.100997925}, "WUN": {"latitude": -26.6291999816895, "label": "Lake Way", "iata": "WUN", "longitude": 120.221000671387}, "TOJ": {"latitude": 40.4967002868652, "label": "Madrid", "iata": "TOJ", "longitude": -3.44586992263794}, "PRK": {"latitude": -29.6835994720459, "label": "Prieska", "iata": "PRK", "longitude": 22.7705993652344}, "CRY": {"latitude": -15.5018997192383, "label": "Broome", "iata": "CRY", "longitude": 128.533996582031}, "LPX": {"latitude": 56.5175018310547, "label": "Liepaja", "iata": "LPX", "longitude": 21.0969009399414}, "YOI": {"latitude": 52.2219444444, "label": "Waskaganish", "iata": "YOI", "longitude": -76.6119444444}, "TTQ": {"latitude": 10.5690002441406, "label": "San Jose", "iata": "TTQ", "longitude": -83.5148010253906}, "UDA": {"latitude": -18.2000007629395, "label": "Cairns", "iata": "UDA", "longitude": 144.600006103516}, "TMT": {"latitude": -1.48959994316101, "label": "Oriximina", "iata": "TMT", "longitude": -56.396800994873}, "NAQ": {"latitude": 77.4886016846, "label": "Qaanaaq", "iata": "NAQ", "longitude": -69.3887023926}, "GBI": {"latitude": 26.6319007874, "label": "Grand Bahama", "iata": "GBI", "longitude": -78.3591995239}, "AGT": {"latitude": -25.4599990844727, "label": "Ciudad del Este", "iata": "AGT", "longitude": -54.8400001525879}, "BIU": {"latitude": 65.6412963867188, "label": "Reykjavik", "iata": "BIU", "longitude": -23.546199798584}, "SHM": {"latitude": 33.6622009277, "label": "Shirahama", "iata": "SHM", "longitude": 135.363998413}, "HUE": {"latitude": 14.25, "label": "Aksum", "iata": "HUE", "longitude": 36.5830001831055}, "KHE": {"latitude": 46.6758003234863, "label": "Kherson", "iata": "KHE", "longitude": 32.5064010620117}, "LPQ": {"latitude": 19.8973007202148, "label": "Luang Prabang", "iata": "LPQ", "longitude": 102.161003112793}, "TMO": {"latitude": 7.25, "label": "Angel Falls", "iata": "TMO", "longitude": -61.4333343505859}, "BAI": {"latitude": 9.16361045837402, "label": "San Jose", "iata": "BAI", "longitude": -83.3299026489258}, "KUU": {"latitude": 31.8766994476318, "label": "Himachal Pradesh", "iata": "KUU", "longitude": 77.1544036865234}, "BEQ": {"latitude": 52.342601776123, "label": "London", "iata": "BEQ", "longitude": 0.772939026355743}, "AGZ": {"latitude": -29.2817993164062, "label": "Calvinia", "iata": "AGZ", "longitude": 18.8138999938965}, "WAE": {"latitude": 20.5042991638, "label": "As Sulayyil", "iata": "WAE", "longitude": 45.1996002197}, "PGA": {"latitude": 36.92610168, "label": "Page", "iata": "PGA", "longitude": -111.447998}, "RFN": {"latitude": 66.4064025878906, "label": "Akureyri", "iata": "RFN", "longitude": -15.9182996749878}, "KMB": {"latitude": -5.4875, "label": "New Guinea", "iata": "KMB", "longitude": 144.606944444}, "CUK": {"latitude": 17.7346992492676, "label": "Belize City", "iata": "CUK", "longitude": -88.0325012207031}, "AGP": {"latitude": 36.6749000549316, "label": "Malaga", "iata": "AGP", "longitude": -4.49911022186279}, "HAU": {"latitude": 59.3452987670898, "label": "Haugesund", "iata": "HAU", "longitude": 5.20836019515991}, "HNA": {"latitude": 39.4286003112793, "label": "Hanamaki", "iata": "HNA", "longitude": 141.134994506836}, "BKD": {"latitude": 32.71900177, "label": "Breckenridge", "iata": "BKD", "longitude": -98.8909988403}, "NKB": {"latitude": -18.4946994781494, "label": "Broome", "iata": "NKB", "longitude": 124.851997375488}, "NAV": {"latitude": 38.771900177, "label": "Nevsehir", "iata": "NAV", "longitude": 34.5345001221}, "BOD": {"latitude": 44.8283004760742, "label": "Bordeaux", "iata": "BOD", "longitude": -0.715556025505066}, "CSH": {"latitude": 65.0299987793, "label": "Arkhangel'sk", "iata": "CSH", "longitude": 35.7333335876}, "ZAL": {"latitude": -39.6500015259, "label": "Valdivia", "iata": "ZAL", "longitude": -73.0860977173}, "OGE": {"latitude": -6.46675, "label": "New Guinea", "iata": "OGE", "longitude": 147.364166667}, "MIR": {"latitude": 35.7580986022949, "label": "Monastir", "iata": "MIR", "longitude": 10.7546997070312}, "IXK": {"latitude": 21.3171005249023, "label": "Junagadh", "iata": "IXK", "longitude": 70.2704010009766}, "TRU": {"latitude": -8.08141040802002, "label": "Trujillo", "iata": "TRU", "longitude": -79.1088027954102}, "YFA": {"latitude": 52.2014007568359, "label": "Hearst", "iata": "YFA", "longitude": -81.6968994140625}, "SPZ": {"latitude": 36.176399231, "label": "Springdale", "iata": "SPZ", "longitude": -94.1193008423}, "YCK": {"latitude": 67.0333023071289, "label": "Norman Wells", "iata": "YCK", "longitude": -126.083000183105}, "FLN": {"latitude": -27.6702785491943, "label": "Florianopolis", "iata": "FLN", "longitude": -48.5525016784668}, "PPK": {"latitude": 54.7747001647949, "label": "Petropavlovsk", "iata": "PPK", "longitude": 69.1838989257812}, "LIR": {"latitude": 10.5932998657227, "label": "Liberia", "iata": "LIR", "longitude": -85.5444030761719}, "LOE": {"latitude": 17.4391002655029, "label": "Loei Province", "iata": "LOE", "longitude": 101.72200012207}, "SQC": {"latitude": -31.2399997711182, "label": "Northam", "iata": "SQC", "longitude": 119.360000610352}, "WRG": {"latitude": 56.48429871, "label": "Wrangell", "iata": "WRG", "longitude": -132.3699951}, "YHO": {"latitude": 55.448299407959, "label": "Happy Valley-Goose Bay", "iata": "YHO", "longitude": -60.2285995483398}, "WYA": {"latitude": -33.0588989257812, "label": "Whyalla", "iata": "WYA", "longitude": 137.514007568359}, "LQM": {"latitude": -0.182278, "label": "Puerto Leguizamo", "iata": "LQM", "longitude": -74.7708}, "SCO": {"latitude": 43.8600997924805, "label": "Fort-Shevchenko", "iata": "SCO", "longitude": 51.0919990539551}, "NLD": {"latitude": 27.4438991547, "label": "Nuevo Laredo", "iata": "NLD", "longitude": -99.5705032349}, "IMT": {"latitude": 45.8184013367, "label": "Green Bay", "iata": "IMT", "longitude": -88.1145019531}, "BIS": {"latitude": 46.7727012634277, "label": "Bismarck", "iata": "BIS", "longitude": -100.746002197266}, "ORE": {"latitude": 47.9878005981, "label": "Orleans", "iata": "ORE", "longitude": 1.76056003571}, "RBQ": {"latitude": -14.4279003143, "label": "Reyes", "iata": "RBQ", "longitude": -67.4968032837}, "KKM": {"latitude": 14.9493999481, "label": "Lopburi", "iata": "KKM", "longitude": 100.642997742}, "YLI": {"latitude": 64.0605010986, "label": "Oulu", "iata": "YLI", "longitude": 24.7159996033}, "PCS": {"latitude": -7.06205987930298, "label": "Picos", "iata": "PCS", "longitude": -41.5237007141113}, "CAE": {"latitude": 33.9388008117676, "label": "Columbia", "iata": "CAE", "longitude": -81.119499206543}, "SAY": {"latitude": 43.2563018798828, "label": "Siena", "iata": "SAY", "longitude": 11.2550001144409}, "QLA": {"latitude": 51.187198638916, "label": "London", "iata": "QLA", "longitude": -1.03349995613098}, "DGE": {"latitude": -32.5625, "label": "Sydney", "iata": "DGE", "longitude": 149.610992432}, "BEP": {"latitude": 15.1627998352051, "label": "Bellary", "iata": "BEP", "longitude": 76.8827972412109}, "MVT": {"latitude": -14.8681001663208, "label": "Mataiva", "iata": "MVT", "longitude": -148.716995239258}, "ASC": {"latitude": -15.9302997589111, "label": "Santa Cruz de la Sierra", "iata": "ASC", "longitude": -63.1567001342773}, "BAD": {"latitude": 32.5018005371, "label": "Bossier City", "iata": "BAD", "longitude": -93.6626968384}, "YAZ": {"latitude": 49.0798255464, "label": "Tofino", "iata": "YAZ", "longitude": -125.775604248}, "IKO": {"latitude": 52.9416007995605, "label": "Unalaska", "iata": "IKO", "longitude": -168.848999023438}, "OBD": {"latitude": -3.9106, "label": "New Guinea", "iata": "OBD", "longitude": 136.2306}, "FLF": {"latitude": 54.7733345031738, "label": "Flensburg", "iata": "FLF", "longitude": 9.3788890838623}, "AVK": {"latitude": 46.250301361084, "label": "Karakorum", "iata": "AVK", "longitude": 102.802001953125}, "HOR": {"latitude": 38.5199012756348, "label": "Horta", "iata": "HOR", "longitude": -28.7159004211426}, "QCY": {"latitude": 53.0929985046, "label": "Coningsby", "iata": "QCY", "longitude": -0.166014000773}, "TIY": {"latitude": 18.5701007843018, "label": "Chinguetti", "iata": "TIY", "longitude": -11.4235000610352}, "SQX": {"latitude": -26.7816009521484, "label": "Chapeco", "iata": "SQX", "longitude": -53.5035018920898}, "XPA": {"latitude": 11.25, "label": "Fada N'Gourma", "iata": "XPA", "longitude": 0.699999988079071}, "YWY": {"latitude": 63.209400177002, "label": "Yellowknife", "iata": "YWY", "longitude": -123.436996459961}, "ULN": {"latitude": 47.8431015014648, "label": "Ulaanbaatar", "iata": "ULN", "longitude": 106.766998291016}, "AZD": {"latitude": 31.9048995972, "label": "Yazd", "iata": "AZD", "longitude": 54.2765007019}, "AJF": {"latitude": 29.7851009368896, "label": "Sakaka", "iata": "AJF", "longitude": 40.0999984741211}, "AGX": {"latitude": 10.8236999511719, "label": "Agatti Island", "iata": "AGX", "longitude": 72.1760025024414}, "CLJ": {"latitude": 46.7851982116699, "label": "Cluj-Napoca", "iata": "CLJ", "longitude": 23.6861991882324}, "NDC": {"latitude": 19.1833000183, "label": "Parbhani", "iata": "NDC", "longitude": 77.3167037964}, "VOZ": {"latitude": 51.8142013549805, "label": "Voronezh", "iata": "VOZ", "longitude": 39.2295989990234}, "TSZ": {"latitude": 47.46544, "label": "Tsetserleg", "iata": "TSZ", "longitude": 101.47755}, "GBK": {"latitude": 7.76700019836426, "label": "Bo", "iata": "GBK", "longitude": -12.3830003738403}, "TCX": {"latitude": 33.6678009033, "label": "Tabas", "iata": "TCX", "longitude": 56.8927001953}, "TOL": {"latitude": 41.58679962, "label": "Toledo", "iata": "TOL", "longitude": -83.80780029}, "TRW": {"latitude": 1.38163995742798, "label": "Tarawa", "iata": "TRW", "longitude": 173.147003173828}, "SMV": {"latitude": 46.5340995788574, "label": "Davos", "iata": "SMV", "longitude": 9.88411045074463}, "KNJ": {"latitude": -3.95000004768372, "label": "Brazzaville", "iata": "KNJ", "longitude": 14.5170001983643}, "HEG": {"latitude": 9.994933, "label": "Kadugli", "iata": "HEG", "longitude": 29.397718}, "JNZ": {"latitude": 41.1013984680176, "label": "Jinzhou", "iata": "JNZ", "longitude": 121.061996459961}, "FIZ": {"latitude": -18.1819000244141, "label": "Margaret River", "iata": "FIZ", "longitude": 125.55899810791}, "KON": {"latitude": 14.3500003814697, "label": "Pleiku", "iata": "KON", "longitude": 108.016998291016}, "HOA": {"latitude": -1.52199995517731, "label": "Garissa", "iata": "HOA", "longitude": 40.0040016174316}, "TUF": {"latitude": 47.4322013855, "label": "Tours", "iata": "TUF", "longitude": 0.727605998516}, "YER": {"latitude": 56.0189018249512, "label": "Thunder Bay", "iata": "YER", "longitude": -87.6761016845703}, "NUG": {"latitude": -3.4075, "label": "Arawa", "iata": "NUG", "longitude": 154.7383}, "XGN": {"latitude": -16.7553997039795, "label": "Ondjiva", "iata": "XGN", "longitude": 14.9652996063232}, "BRY": {"latitude": 37.8143005371, "label": "Bardstown", "iata": "BRY", "longitude": -85.4996032715}, "BCR": {"latitude": -8.83456039428711, "label": "Boca do Acre", "iata": "BCR", "longitude": -67.3124008178711}, "WAP": {"latitude": -43.6119003296, "label": "Puerto Montt", "iata": "WAP", "longitude": -71.806098938}, "EYK": {"latitude": 63.6869010925, "label": "Severnaya Sosva River", "iata": "EYK", "longitude": 66.698600769}, "WAY": {"latitude": 39.90010071, "label": "Waynesburg", "iata": "WAY", "longitude": -80.13310242}, "PJG": {"latitude": 26.9545001983643, "label": "Turbat", "iata": "PJG", "longitude": 64.1324996948242}, "SJA": {"latitude": -15.352499961853, "label": "Nazca", "iata": "SJA", "longitude": -75.1371994018555}, "WPM": {"latitude": -8.78822040557861, "label": "New Guinea", "iata": "WPM", "longitude": 142.88200378418}, "FEC": {"latitude": -12.2003002167, "label": "Feira de Santana", "iata": "FEC", "longitude": -38.9067993164}, "ORA": {"latitude": -23.1527996063, "label": "San Ramon de la Nueva Oran", "iata": "ORA", "longitude": -64.3292007446}, "YZU": {"latitude": 54.1439018249512, "label": "Whitecourt", "iata": "YZU", "longitude": -115.787002563477}, "ODD": {"latitude": -27.5617008209229, "label": "Lake Eyre", "iata": "ODD", "longitude": 135.447006225586}, "PNG": {"latitude": -25.5401000976562, "label": "Paranagua", "iata": "PNG", "longitude": -48.5312004089355}, "BZD": {"latitude": -34.6236000061035, "label": "Lachlan River", "iata": "BZD", "longitude": 143.578002929688}, "VRO": {"latitude": 23.1240005493, "label": "Matanzas", "iata": "VRO", "longitude": -81.3015975952}, "LRH": {"latitude": 46.17919921875, "label": "La Rochelle", "iata": "LRH", "longitude": -1.19527995586395}, "ONQ": {"latitude": 41.506401062, "label": "Zonguldak", "iata": "ONQ", "longitude": 32.0886001587}, "DED": {"latitude": 30.189699173, "label": "Dehradun", "iata": "DED", "longitude": 78.1802978516}, "OAM": {"latitude": -44.9700012207031, "label": "Dunedin", "iata": "OAM", "longitude": 171.082000732422}, "YTF": {"latitude": 48.5088996887, "label": "Alma", "iata": "YTF", "longitude": -71.6418991089}, "UPB": {"latitude": 23.0328006744, "label": "Havana", "iata": "UPB", "longitude": -82.5793991089}, "MTB": {"latitude": 7.97174, "label": "Monteria", "iata": "MTB", "longitude": -75.4325}, "CIF": {"latitude": 42.2350006103516, "label": "Beijing", "iata": "CIF", "longitude": 118.907997131348}, "JFR": {"latitude": 62.0147361755, "label": "Frederikshab", "iata": "JFR", "longitude": -49.6709365845}, "FKL": {"latitude": 41.3778991699, "label": "Franklin Park", "iata": "FKL", "longitude": -79.8603973389}, "WFK": {"latitude": 47.2854995728, "label": "Fort Kent", "iata": "WFK", "longitude": -68.3127975464}, "VPE": {"latitude": -17.0435009002686, "label": "Ondjiva", "iata": "VPE", "longitude": 15.6837997436523}, "RQW": {"latitude": 35.76720047, "label": "Mosul", "iata": "RQW", "longitude": 43.1250991821}, "SGG": {"latitude": 1.21700000762939, "label": "Simanggang", "iata": "SGG", "longitude": 111.449996948242}, "SPI": {"latitude": 39.84410095, "label": "Springfield", "iata": "SPI", "longitude": -89.67790222}, "TXN": {"latitude": 29.7332992553711, "label": "Anqing", "iata": "TXN", "longitude": 118.255996704102}, "LSE": {"latitude": 43.87900162, "label": "La Crosse", "iata": "LSE", "longitude": -91.25669861}, "AVL": {"latitude": 35.4361991882324, "label": "Asheville", "iata": "AVL", "longitude": -82.5418014526367}, "SWQ": {"latitude": -8.48904037475586, "label": "Sumbawa", "iata": "SWQ", "longitude": 117.412002563477}, "YVZ": {"latitude": 52.6557998657227, "label": "Winnipeg", "iata": "YVZ", "longitude": -94.0614013671875}, "CVN": {"latitude": 34.4250984192, "label": "Clovis", "iata": "CVN", "longitude": -103.07900238}, "SHH": {"latitude": 66.2496032714844, "label": "Shishmaref", "iata": "SHH", "longitude": -166.089004516602}, "HAM": {"latitude": 53.6570269266802, "label": "Hamburg", "iata": "HAM", "longitude": 10.180995305386782}, "BNB": {"latitude": -0.216999992728233, "label": "Bongandanga", "iata": "BNB", "longitude": 20.8500003814697}, "ECP": {"latitude": 30.3417, "label": "Panama City Beach", "iata": "ECP", "longitude": -85.7973}, "KMH": {"latitude": -27.4566993713379, "label": "Kuruman", "iata": "KMH", "longitude": 23.4113998413086}, "BAS": {"latitude": -6.990745, "label": "Gizo", "iata": "BAS", "longitude": 155.886656}, "CQP": {"latitude": -14.9709997177124, "label": "Cairns", "iata": "CQP", "longitude": 145.311004638672}, "CAI": {"latitude": 30.1219005584717, "label": "Cairo", "iata": "CAI", "longitude": 31.4055995941162}, "YQG": {"latitude": 42.2756004333496, "label": "Windsor", "iata": "YQG", "longitude": -82.9555969238281}, "WWA": {"latitude": 61.5717010498, "label": "Wasilla", "iata": "WWA", "longitude": -149.539993286}, "CIW": {"latitude": 12.6990003585815, "label": "Canouan", "iata": "CIW", "longitude": -61.342399597168}, "ABM": {"latitude": -10.9507999420166, "label": "Cape York Peninsula", "iata": "ABM", "longitude": 142.458999633789}, "FEL": {"latitude": 48.2055549621582, "label": "Munich", "iata": "FEL", "longitude": 11.2669439315796}, "KYF": {"latitude": -27.2768993377686, "label": "Geraldton", "iata": "KYF", "longitude": 120.096000671387}, "ACJ": {"latitude": 8.30148983002, "label": "Anuradhapura", "iata": "ACJ", "longitude": 80.4279022217}, "ULY": {"latitude": 54.33465003968125, "label": "Ul'yanovsk", "iata": "ULY", "longitude": 48.514699935912304}, "DSV": {"latitude": 42.5708999634, "label": "Dansville", "iata": "DSV", "longitude": -77.7130966187}, "SSO": {"latitude": -22.0909004211426, "label": "Rio de Janeiro", "iata": "SSO", "longitude": -45.0444984436035}, "RAX": {"latitude": -9.63291666667, "label": "New Guinea", "iata": "RAX", "longitude": 148.048055556}, "BUP": {"latitude": 30.2700996398926, "label": "Bhatinda", "iata": "BUP", "longitude": 74.7557983398438}, "ZMG": {"latitude": 52.0736122131, "label": "Burg bei Magdeburg", "iata": "ZMG", "longitude": 11.6263885498}, "KSN": {"latitude": 53.206901550293, "label": "Karasu", "iata": "KSN", "longitude": 63.5503005981445}, "BHJ": {"latitude": 23.2877998352, "label": "Bhuj", "iata": "BHJ", "longitude": 69.6701965332}, "BTA": {"latitude": 4.5486102104187, "label": "Bertoua", "iata": "BTA", "longitude": 13.7260999679565}, "ZZV": {"latitude": 39.9444007874, "label": "Columbus", "iata": "ZZV", "longitude": -81.8920974731}, "WIN": {"latitude": -22.3635997772217, "label": "Bladensburg National Park", "iata": "WIN", "longitude": 143.085998535156}, "PNV": {"latitude": 55.7294006347656, "label": "Panevezys", "iata": "PNV", "longitude": 24.4608001708984}, "LFR": {"latitude": 8.23916721343994, "label": "San Cristobal ", "iata": "LFR", "longitude": -72.2710266113281}, "YCM": {"latitude": 43.1916999816895, "label": "Niagara-on-the-Lake", "iata": "YCM", "longitude": -79.1716995239258}, "KDA": {"latitude": 12.8985004425049, "label": "Kolda", "iata": "KDA", "longitude": -14.9680995941162}, "NMN": {"latitude": -6.32183, "label": "New Guinea", "iata": "NMN", "longitude": 145.070667}, "HGO": {"latitude": 9.38718032837, "label": "Korhogo", "iata": "HGO", "longitude": -5.55666017532}, "CHV": {"latitude": 41.7223243713379, "label": "Chaves", "iata": "CHV", "longitude": -7.46315002441406}, "ONI": {"latitude": -3.98340201377869, "label": "New Guinea", "iata": "ONI", "longitude": 136.083297729492}, "KOX": {"latitude": -4.71075, "label": "New Guinea", "iata": "KOX", "longitude": 136.43515}, "FEG": {"latitude": 40.3587989807, "label": "Fergana", "iata": "FEG", "longitude": 71.7450027466}, "JNU": {"latitude": 58.3549995422363, "label": "Juneau", "iata": "JNU", "longitude": -134.57600402832}, "ABQ": {"latitude": 35.0401992797852, "label": "Albuquerque", "iata": "ABQ", "longitude": -106.609001159668}, "SNP": {"latitude": 57.1673011779785, "label": "Unalaska", "iata": "SNP", "longitude": -170.220001220703}, "YYU": {"latitude": 49.4138984680176, "label": "Kapuskasing", "iata": "YYU", "longitude": -82.4674987792969}, "COL": {"latitude": 56.6018981934, "label": "Coll Island", "iata": "COL", "longitude": -6.61778020859}, "XEN": {"latitude": 40.5802993774, "label": "Jinzhou", "iata": "XEN", "longitude": 120.697998047}, "QIQ": {"latitude": -22.4311008453369, "label": "Rio Claro", "iata": "QIQ", "longitude": -47.5642013549805}, "AYQ": {"latitude": -25.1861000061035, "label": "Yulara", "iata": "AYQ", "longitude": 130.975997924805}, "WHP": {"latitude": 34.2593002319, "label": "Los Angeles", "iata": "WHP", "longitude": -118.413002014}, "KTP": {"latitude": 17.9885997772217, "label": "Kingston", "iata": "KTP", "longitude": -76.8237991333008}, "CVE": {"latitude": 9.40092, "label": "Cartagena", "iata": "CVE", "longitude": -75.6913}, "GOJ": {"latitude": 56.2300987243652, "label": "Nizhniy Novgorod", "iata": "GOJ", "longitude": 43.7840003967285}, "SUB": {"latitude": -7.37982988357544, "label": "Surabaya", "iata": "SUB", "longitude": 112.787002563477}, "VPS": {"latitude": 30.4832000732422, "label": "Valparaiso", "iata": "VPS", "longitude": -86.5253982543945}, "CNB": {"latitude": -30.9832992553711, "label": "Siding Spring Observatory", "iata": "CNB", "longitude": 148.376007080078}, "TGA": {"latitude": 1.38725996017456, "label": "Pulau Ujong", "iata": "TGA", "longitude": 103.708999633789}, "OPI": {"latitude": -12.3249998092651, "label": "Kakadu National Park", "iata": "OPI", "longitude": 133.005996704102}, "GDP": {"latitude": -6.78221988677979, "label": "Teresina", "iata": "GDP", "longitude": -43.5821990966797}, "PQE": {"latitude": 5.48361, "label": "La Dorada", "iata": "PQE", "longitude": -74.6574}, "YQD": {"latitude": 53.9714012145996, "label": "The Pas", "iata": "YQD", "longitude": -101.091003417969}, "UND": {"latitude": 36.6651000976562, "label": "Kunduz", "iata": "UND", "longitude": 68.9107971191406}, "SYB": {"latitude": 58.3733, "label": "Kodiak", "iata": "SYB", "longitude": -152.2018}, "SIR": {"latitude": 46.2196006775, "label": "Sion", "iata": "SIR", "longitude": 7.32675981522}, "TSV": {"latitude": -19.2525005340576, "label": "Townsville", "iata": "TSV", "longitude": 146.764999389648}, "ARP": {"latitude": -9.88333333333, "label": "New Guinea", "iata": "ARP", "longitude": 149.483333333}, "ISI": {"latitude": -24.25830078125, "label": "Australian Stockman's Hall of Fame", "iata": "ISI", "longitude": 144.425003051758}, "CBG": {"latitude": 52.2050018311, "label": "Cambridge", "iata": "CBG", "longitude": 0.17499999702}, "ZEN": {"latitude": -6.95222222222, "label": "New Guinea", "iata": "ZEN", "longitude": 146.61625}, "XMF": {"latitude": 47.4869995117188, "label": "Courcelles-les-Montbeliard", "iata": "XMF", "longitude": 6.79054021835327}, "KLU": {"latitude": 46.6425018311, "label": "Klagenfurt", "iata": "KLU", "longitude": 14.3376998901}, "YFH": {"latitude": 51.5619010925293, "label": "Thunder Bay", "iata": "YFH", "longitude": -87.9077987670898}, "ZBK": {"latitude": 43.1166687011719, "label": "Podgorica", "iata": "ZBK", "longitude": 19.2333335876465}, "MNA": {"latitude": 4.00693988800049, "label": "Manado", "iata": "MNA", "longitude": 126.672996520996}, "BQA": {"latitude": 15.7298002243, "label": "Luzon", "iata": "BQA", "longitude": 121.5}, "GOL": {"latitude": 42.41339874, "label": "Gold Beach", "iata": "GOL", "longitude": -124.4240036}, "GVA": {"latitude": 46.2380981445312, "label": "Geneva", "iata": "GVA", "longitude": 6.10895013809204}, "PEX": {"latitude": 65.1211013793945, "label": "Pechora", "iata": "PEX", "longitude": 57.1307983398438}, "YCZ": {"latitude": 50.3302993774, "label": "Cranbrook", "iata": "YCZ", "longitude": -115.873001099}, "XCB": {"latitude": 50.2218017578125, "label": "Epinoy", "iata": "XCB", "longitude": 3.15423989295959}, "EUQ": {"latitude": 10.765999794, "label": "Panay", "iata": "EUQ", "longitude": 121.932998657}, "IXI": {"latitude": 27.2954998016357, "label": "Dibrugarh", "iata": "IXI", "longitude": 94.0976028442383}, "HIA": {"latitude": 33.7908333333, "label": "Nanjing", "iata": "HIA", "longitude": 119.125}, "FAQ": {"latitude": -4.610468, "label": "New Guinea", "iata": "FAQ", "longitude": 141.960138}, "TNG": {"latitude": 35.7268981934, "label": "Tangier", "iata": "TNG", "longitude": -5.91689014435}, "REQ": {"latitude": 28.9708003997803, "label": "Dalbandin", "iata": "REQ", "longitude": 62.4333000183105}, "TKC": {"latitude": 4.08919000626, "label": "Tiko", "iata": "TKC", "longitude": 9.3605298996}, "BSZ": {"latitude": 58.2162017822, "label": "Dillingham", "iata": "BSZ", "longitude": -157.352005005}, "MEN": {"latitude": 44.5021018981934, "label": "Mende", "iata": "MEN", "longitude": 3.53281998634338}, "BJY": {"latitude": 44.935299, "label": "Belgrade", "iata": "BJY", "longitude": 20.2575}, "AJJ": {"latitude": 19.7330169677734, "label": "Nouakchott", "iata": "AJJ", "longitude": -14.3832492828369}, "QPD": {"latitude": 22.4214000701904, "label": "Pinar del Rio", "iata": "QPD", "longitude": -83.6783981323242}, "CHJ": {"latitude": -20.2066993713379, "label": "Chipinge", "iata": "CHJ", "longitude": 32.6282997131348}, "BLB": {"latitude": 8.9147901535, "label": "Panama City", "iata": "BLB", "longitude": -79.5996017456}, "CVH": {"latitude": -37.851398468, "label": "Neuquen", "iata": "CVH", "longitude": -71.0092010498}, "AHB": {"latitude": 18.2404003143, "label": "Abha", "iata": "AHB", "longitude": 42.6566009521}, "OHR": {"latitude": 54.6844444274902, "label": "Wyk auf Fohr", "iata": "OHR", "longitude": 8.52833271026611}, "PKK": {"latitude": 21.4043, "label": "Pakokku", "iata": "PKK", "longitude": 95.11125}, "BHR": {"latitude": 27.6781005859375, "label": "Bharatpur", "iata": "BHR", "longitude": 84.4293975830078}, "DAF": {"latitude": -4.7403, "label": "New Guinea", "iata": "DAF", "longitude": 145.9515}, "AYG": {"latitude": 1.54417, "label": "Cartagena del Chaira", "iata": "AYG", "longitude": -73.9333}, "ICN": {"latitude": 37.4691009521484, "label": "Seoul", "iata": "ICN", "longitude": 126.450996398926}, "LRD": {"latitude": 27.5438003540039, "label": "Laredo", "iata": "LRD", "longitude": -99.4616012573242}, "QPZ": {"latitude": 44.9131011962891, "label": "Parma", "iata": "QPZ", "longitude": 9.72332954406738}, "MEW": {"latitude": -4.84999990463257, "label": "Mweka", "iata": "MEW", "longitude": 21.5499992370605}, "BWX": {"latitude": -8.310078, "label": "Banyuwangi", "iata": "BWX", "longitude": 114.339178}, "BZO": {"latitude": 46.4602012634277, "label": "Bolzano", "iata": "BZO", "longitude": 11.3263998031616}, "MGB": {"latitude": -37.7456016540527, "label": "Mount Gambier", "iata": "MGB", "longitude": 140.785003662109}, "IOS": {"latitude": -14.8159999847412, "label": "Ilheus", "iata": "IOS", "longitude": -39.0331993103027}, "DNZ": {"latitude": 37.7855987549, "label": "Denizli", "iata": "DNZ", "longitude": 29.7012996674}, "HDR": {"latitude": 27.1583003997803, "label": "Bandar-e Lengeh", "iata": "HDR", "longitude": 56.1725006103516}, "HOX": {"latitude": 24.8995990753174, "label": "Myitkyina", "iata": "HOX", "longitude": 94.9140014648438}, "MEQ": {"latitude": 4.25, "label": "Sumatra", "iata": "MEQ", "longitude": 96.2170028686523}, "AND": {"latitude": 34.4945983887, "label": "Anderson", "iata": "AND", "longitude": -82.7093963623}, "CII": {"latitude": 37.8149986267, "label": "Izmir", "iata": "CII", "longitude": 27.8952999115}, "FYV": {"latitude": 36.14349937437205, "label": "Fayetteville", "iata": "FYV", "longitude": -94.2384490966871}, "JDH": {"latitude": 26.2511005401611, "label": "Jodhpur", "iata": "JDH", "longitude": 73.0488967895508}, "TKK": {"latitude": 7.46187019348145, "label": "Weno", "iata": "TKK", "longitude": 151.843002319336}, "HEK": {"latitude": 50.1716209371, "label": "Heihe", "iata": "HEK", "longitude": 127.308883667}, "OYO": {"latitude": -38.3869, "label": "Tres Arroyos", "iata": "OYO", "longitude": -60.3297}, "DBQ": {"latitude": 42.40200043, "label": "Dubuque", "iata": "DBQ", "longitude": -90.70950317}, "ARY": {"latitude": -37.309398651123, "label": "Ballarat", "iata": "ARY", "longitude": 142.988998413086}, "PLH": {"latitude": 50.4227981567383, "label": "Plymouth", "iata": "PLH", "longitude": -4.10583019256592}, "CBC": {"latitude": -18.9177777778, "label": "Broome", "iata": "CBC", "longitude": 125.537777778}, "OIT": {"latitude": 33.4794006348, "label": "Oita", "iata": "OIT", "longitude": 131.736999512}, "YOW": {"latitude": 45.434833526599995, "label": "Ottawa", "iata": "YOW", "longitude": -75.62629954020001}, "AXG": {"latitude": 43.0778999329, "label": "Algona", "iata": "AXG", "longitude": -94.2720031738}, "BGT": {"latitude": 34.5959014892578, "label": "Bagdad", "iata": "BGT", "longitude": -113.169998168945}, "BZC": {"latitude": -22.7709999084473, "label": "Cabo Frio", "iata": "BZC", "longitude": -41.9628982543945}, "ULV": {"latitude": 54.2682991028, "label": "Ul'yanovsk", "iata": "ULV", "longitude": 48.2266998291}, "WAG": {"latitude": -39.9622001647949, "label": "Wanganui", "iata": "WAG", "longitude": 175.024993896484}, "VAF": {"latitude": 44.9216003417969, "label": "Chabeuil", "iata": "VAF", "longitude": 4.96990013122559}, "ASF": {"latitude": 46.2832984924, "label": "Astrakhan'", "iata": "ASF", "longitude": 48.0063018799}, "WRY": {"latitude": 59.3502998352, "label": "Westray Island", "iata": "WRY", "longitude": -2.95000004768}, "SUL": {"latitude": 28.6450996398926, "label": "Quetta", "iata": "SUL", "longitude": 69.1769027709961}, "TOS": {"latitude": 69.6832962036133, "label": "Tromso", "iata": "TOS", "longitude": 18.9188995361328}, "NAP": {"latitude": 40.8860015869141, "label": "Naples", "iata": "NAP", "longitude": 14.2908000946045}, "OBO": {"latitude": 42.7332992554, "label": "Obihiro", "iata": "OBO", "longitude": 143.216995239}, "TKX": {"latitude": -14.4558000564575, "label": "Takaroa", "iata": "TKX", "longitude": -145.024993896484}, "BFI": {"latitude": 47.5299987792969, "label": "Seattle", "iata": "BFI", "longitude": -122.302001953125}, "SWA": {"latitude": 23.4269008636475, "label": "Shantou", "iata": "SWA", "longitude": 116.762001037598}, "GOO": {"latitude": -28.5214004516602, "label": "Brisbane", "iata": "GOO", "longitude": 150.320007324219}, "MYY": {"latitude": 4.3220100402832, "label": "Miri", "iata": "MYY", "longitude": 113.986999511719}, "PBV": {"latitude": 56.5783004760742, "label": "Unalaska", "iata": "PBV", "longitude": -169.662002563477}, "BCZ": {"latitude": -13.7808333333, "label": "Nhulunbuy", "iata": "BCZ", "longitude": 136.201666667}, "LWY": {"latitude": 4.84917020797729, "label": "East Malaysia (Borneo)", "iata": "LWY", "longitude": 115.407997131348}, "SNJ": {"latitude": 22.0953006744385, "label": "Pinar del Rio", "iata": "SNJ", "longitude": -84.1520004272461}, "CDK": {"latitude": 29.1352567648, "label": "Cedar Key", "iata": "CDK", "longitude": -83.0483901501}, "KID": {"latitude": 55.9216995239258, "label": "Kristianstad", "iata": "KID", "longitude": 14.0854997634888}, "BKU": {"latitude": -23.7329998016357, "label": "Betioky", "iata": "BKU", "longitude": 44.3889999389648}, "HTU": {"latitude": -35.7153015136719, "label": "Bendigo", "iata": "HTU", "longitude": 142.360000610352}, "ATN": {"latitude": -3.66666666667, "label": "Namatanai", "iata": "ATN", "longitude": 152.441666667}, "SRE": {"latitude": -19.0070991516113, "label": "Sucre", "iata": "SRE", "longitude": -65.2886962890625}, "WML": {"latitude": -20.3553902921, "label": "Morondava", "iata": "WML", "longitude": 45.5433726311}, "KSW": {"latitude": 33.2167015075684, "label": "Nazareth", "iata": "KSW", "longitude": 35.5999984741211}, "BTH": {"latitude": 1.12102997303, "label": "Batam", "iata": "BTH", "longitude": 104.119003296}, "BRT": {"latitude": -11.7692003250122, "label": "Manatuto", "iata": "BRT", "longitude": 130.619995117188}, "DVL": {"latitude": 48.11420059, "label": "Devils Lake", "iata": "DVL", "longitude": -98.90879822}, "FOS": {"latitude": -30.8381004333496, "label": "Loongana railway station", "iata": "FOS", "longitude": 128.115005493164}, "MEK": {"latitude": 33.8791007995605, "label": "Meknes", "iata": "MEK", "longitude": -5.51512002944946}, "KKY": {"latitude": 52.6507987976074, "label": "Kilkenny", "iata": "KKY", "longitude": -7.29611015319824}, "YFR": {"latitude": 61.1808013916, "label": "Yellowknife", "iata": "YFR", "longitude": -113.690002441}, "PND": {"latitude": 16.102399826, "label": "Punta Gorda", "iata": "PND", "longitude": -88.8082962036}, "PEG": {"latitude": 43.0959014892578, "label": "Perugia", "iata": "PEG", "longitude": 12.5131998062134}, "RUU": {"latitude": -5.33444444444, "label": "New Guinea", "iata": "RUU", "longitude": 144.256666667}, "MHT": {"latitude": 42.9325981140137, "label": "Manchester", "iata": "MHT", "longitude": -71.4356994628906}, "ALS": {"latitude": 37.4348983765, "label": "Alamosa", "iata": "ALS", "longitude": -105.866996765}, "PUS": {"latitude": 35.1795005798, "label": "Busan", "iata": "PUS", "longitude": 128.93800354}, "MEC": {"latitude": -0.94607800245285, "label": "Manta", "iata": "MEC", "longitude": -80.6788024902344}, "AMD": {"latitude": 23.0771999359, "label": "Ahmedabad", "iata": "AMD", "longitude": 72.6346969604}, "HVA": {"latitude": -14.6296997070312, "label": "Antsohihy", "iata": "HVA", "longitude": 47.763801574707}, "ISG": {"latitude": 24.344499588, "label": "Ishigaki", "iata": "ISG", "longitude": 124.18699646}, "SDL": {"latitude": 62.5280990600586, "label": "Sundsvall", "iata": "SDL", "longitude": 17.4438991546631}, "ARI": {"latitude": -18.3484992980957, "label": "Arica", "iata": "ARI", "longitude": -70.3386993408203}, "JZH": {"latitude": 32.8533333333, "label": "Chengdu", "iata": "JZH", "longitude": 103.682222222}, "LES": {"latitude": -29.7828998565674, "label": "Maseru", "iata": "LES", "longitude": 28.3166999816895}, "XMS": {"latitude": -2.29917001724243, "label": "Macas", "iata": "XMS", "longitude": -78.1207962036133}, "BDD": {"latitude": -10.1499996185, "label": "Cape York Peninsula", "iata": "BDD", "longitude": 142.1734}, "SYC": {"latitude": -11.8999996185303, "label": "Puerto Maldonado", "iata": "SYC", "longitude": -69.1669998168945}, "SDU": {"latitude": -22.9104995728, "label": "Rio de Janeiro", "iata": "SDU", "longitude": -43.1631011963}, "LON": {"latitude": 51.54084232875419, "label": "London", "iata": "LON", "longitude": -0.0003168609524795101}, "YTS": {"latitude": 48.5696983337, "label": "Timmins", "iata": "YTS", "longitude": -81.376701355}, "CPL": {"latitude": 3.717, "label": "Chaparral", "iata": "CPL", "longitude": -75.467}, "LUR": {"latitude": 68.87509918, "label": "Point Hope", "iata": "LUR", "longitude": -166.1100006}, "GUW": {"latitude": 47.121898651123, "label": "Atyrau", "iata": "GUW", "longitude": 51.8213996887207}, "YDQ": {"latitude": 55.7422981262207, "label": "Dawson Creek", "iata": "YDQ", "longitude": -120.182998657227}, "TAY": {"latitude": 58.3074989319, "label": "Tartu", "iata": "TAY", "longitude": 26.6903991699}, "UYL": {"latitude": 12.0535001754761, "label": "Nyala", "iata": "UYL", "longitude": 24.9561996459961}, "GLI": {"latitude": -29.6749992370605, "label": "Armidale", "iata": "GLI", "longitude": 151.688995361328}, "LDB": {"latitude": -23.3335990906, "label": "Londrina", "iata": "LDB", "longitude": -51.1301002502}, "HUU": {"latitude": -9.87880992889404, "label": "Huanuco", "iata": "HUU", "longitude": -76.2048034667969}, "ENN": {"latitude": 64.5473022460938, "label": "Fairbanks", "iata": "ENN", "longitude": -149.074005126953}, "OOM": {"latitude": -36.3005981445, "label": "Cooma", "iata": "OOM", "longitude": 148.973999023}, "BRQ": {"latitude": 49.1512985229492, "label": "Brno", "iata": "BRQ", "longitude": 16.6944007873535}, "MZK": {"latitude": 2.05860996246338, "label": "Bairiki", "iata": "MZK", "longitude": 173.27099609375}, "MWP": {"latitude": 28.0, "label": "Kathmandu", "iata": "MWP", "longitude": 85.3330001831055}, "BLJ": {"latitude": 35.7521018982, "label": "Batna", "iata": "BLJ", "longitude": 6.3085899353}, "PRU": {"latitude": 18.824499130249, "label": "Prome", "iata": "PRU", "longitude": 95.265998840332}, "RBC": {"latitude": -34.6500015258789, "label": "Rural City of Swan Hill", "iata": "RBC", "longitude": 142.783004760742}, "XWP": {"latitude": 56.1344069918, "label": "Hassleholm", "iata": "XWP", "longitude": 13.8756465912}, "PAP": {"latitude": 18.5799999237061, "label": "Port-au-Prince", "iata": "PAP", "longitude": -72.2925033569336}, "ANI": {"latitude": 61.581600189209, "label": "Aniak", "iata": "ANI", "longitude": -159.542999267578}, "AOE": {"latitude": 39.8098983765, "label": "Eskisehir", "iata": "AOE", "longitude": 30.5193996429}, "CHG": {"latitude": 41.5381011962891, "label": "Chaoyang", "iata": "CHG", "longitude": 120.434997558594}, "NDU": {"latitude": -17.9564990997314, "label": "Rundu", "iata": "NDU", "longitude": 19.7194004058838}, "TIC": {"latitude": 7.13332986831665, "label": "Butaritari", "iata": "TIC", "longitude": 171.917007446289}, "CQA": {"latitude": -13.5744438171387, "label": "Aragarcas", "iata": "CQA", "longitude": -52.2705574035645}, "TRZ": {"latitude": 10.7653999328613, "label": "Tiruchchirappalli", "iata": "TRZ", "longitude": 78.7097015380859}, "GYN": {"latitude": -16.6319999694824, "label": "Goiania", "iata": "GYN", "longitude": -49.2206993103027}, "VIA": {"latitude": -26.9997005462646, "label": "Videira", "iata": "VIA", "longitude": -51.1418991088867}, "KGF": {"latitude": 49.6707992553711, "label": "Karaganda", "iata": "KGF", "longitude": 73.3343963623047}, "SYE": {"latitude": 16.9669990539551, "label": "Sanaa", "iata": "SYE", "longitude": 43.7330017089844}, "BHB": {"latitude": 44.45000076, "label": "Bar Harbor", "iata": "BHB", "longitude": -68.3615036}, "MKG": {"latitude": 43.16949844, "label": "Muskegon", "iata": "MKG", "longitude": -86.23819733}, "SVZ": {"latitude": 7.84082984924316, "label": "San Cristobal ", "iata": "SVZ", "longitude": -72.439697265625}, "KDX": {"latitude": 11.1379995346, "label": "Kadugli", "iata": "KDX", "longitude": 29.7010993958}, "EOI": {"latitude": 59.190601348877, "label": "Eday Island", "iata": "EOI", "longitude": -2.77221989631653}, "SYW": {"latitude": 26.4731006622314, "label": "Karachi", "iata": "SYW", "longitude": 67.7172012329102}, "BZU": {"latitude": 2.81835007667542, "label": "Buta", "iata": "BZU", "longitude": 24.7936992645264}, "EQS": {"latitude": -42.908000946, "label": "San Carlos de Bariloche", "iata": "EQS", "longitude": -71.139503479}, "CTR": {"latitude": -17.6070003509521, "label": "Tennant Creek", "iata": "CTR", "longitude": 131.54899597168}, "RSB": {"latitude": -25.8332996368408, "label": "Georgina River", "iata": "RSB", "longitude": 139.649993896484}, "CRM": {"latitude": 12.5024003982544, "label": "Catarman", "iata": "CRM", "longitude": 124.636001586914}, "LLA": {"latitude": 65.5438003540039, "label": "Lulea", "iata": "LLA", "longitude": 22.1219997406006}, "HBK": {"latitude": 34.940700531, "label": "Holbrook", "iata": "HBK", "longitude": -110.138000488}, "ELQ": {"latitude": 26.3027992248535, "label": "Buraydah", "iata": "ELQ", "longitude": 43.7743988037109}, "OCH": {"latitude": 31.2339992523, "label": "Lufkin", "iata": "OCH", "longitude": -94.75}, "BPK": {"latitude": -5.52638888889, "label": "New Guinea", "iata": "BPK", "longitude": 141.744583333}, "EXT": {"latitude": 50.7344017028809, "label": "Exeter", "iata": "EXT", "longitude": -3.41388988494873}, "BEJ": {"latitude": 2.15549993515, "label": "Kalimantan (Borneo)", "iata": "BEJ", "longitude": 117.431999207}, "RDB": {"latitude": 68.0320968628, "label": "Kotzebue", "iata": "RDB", "longitude": -162.899002075}, "KNT": {"latitude": 36.2258987427, "label": "Kennett", "iata": "KNT", "longitude": -90.0365982056}, "KSP": {"latitude": -8.450716, "label": "New Guinea", "iata": "KSP", "longitude": 147.209195}, "KMU": {"latitude": -0.377353012561798, "label": "Kismayo", "iata": "KMU", "longitude": 42.4592018127441}, "KRO": {"latitude": 55.4752998352051, "label": "Kurgan", "iata": "KRO", "longitude": 65.4156036376953}, "BBZ": {"latitude": -13.5361003875732, "label": "Zambezi", "iata": "BBZ", "longitude": 23.1084995269775}, "GAY": {"latitude": 24.7443008422852, "label": "Gaya", "iata": "GAY", "longitude": 84.9512023925781}, "QIT": {"latitude": -15.2445001602173, "label": "Itapetinga", "iata": "QIT", "longitude": -40.2771987915039}, "XJD": {"latitude": 25.1173000336, "label": "Doha", "iata": "XJD", "longitude": 51.3149986267}, "DUM": {"latitude": 1.60918998718262, "label": "Sumatra", "iata": "DUM", "longitude": 101.43399810791}, "AUQ": {"latitude": -9.76879024505615, "label": "Hiva Oa", "iata": "AUQ", "longitude": -139.011001586914}, "IOR": {"latitude": 53.120849609375, "label": "Inishmor", "iata": "IOR", "longitude": -9.74542140960693}, "PKN": {"latitude": -2.70519995689, "label": "Borneo ", "iata": "PKN", "longitude": 111.672996521}, "SUQ": {"latitude": -2.48300004005432, "label": "Sucua", "iata": "SUQ", "longitude": -78.1669998168945}, "BGS": {"latitude": 32.21260071, "label": "Big Spring", "iata": "BGS", "longitude": -101.5220032}, "HTY": {"latitude": 36.36277771, "label": "Antioch", "iata": "HTY", "longitude": 36.2822227478}, "VLN": {"latitude": 10.1497325897217, "label": "Valencia", "iata": "VLN", "longitude": -67.9283981323242}, "EVG": {"latitude": 62.0477981567383, "label": "Ostersund", "iata": "EVG", "longitude": 14.4229001998901}, "ABK": {"latitude": 6.73400020599365, "label": "Jijiga", "iata": "ABK", "longitude": 44.2529983520508}, "MBA": {"latitude": -4.03483009338379, "label": "Mombasa", "iata": "MBA", "longitude": 39.5942001342773}, "MZZ": {"latitude": 40.4898986816, "label": "Marion", "iata": "MZZ", "longitude": -85.6797027588}, "LZO": {"latitude": 28.8521995544434, "label": "Chengdu", "iata": "LZO", "longitude": 105.392997741699}, "MQS": {"latitude": 12.887900352478, "label": "Mustique Islands", "iata": "MQS", "longitude": -61.1801986694336}, "OKG": {"latitude": -1.4483300447464, "label": "Ewo", "iata": "OKG", "longitude": 15.0733003616333}, "YMT": {"latitude": 49.771900177002, "label": "Chibougamau", "iata": "YMT", "longitude": -74.5280990600586}, "ICL": {"latitude": 40.72180176, "label": "Clarinda", "iata": "ICL", "longitude": -95.02639771}, "BJG": {"latitude": -0.972895979881287, "label": "Gorontalo", "iata": "BJG", "longitude": 122.144996643066}, "PEK": {"latitude": 40.0801010131836, "label": "Beijing", "iata": "PEK", "longitude": 116.584999084473}, "KYI": {"latitude": -31.4706001281738, "label": "Adelaide", "iata": "KYI", "longitude": 131.824996948242}, "TDG": {"latitude": 9.07211017608643, "label": "Tandag", "iata": "TDG", "longitude": 126.170997619629}, "JMO": {"latitude": 28.780426, "label": "Kathmandu", "iata": "JMO", "longitude": 83.723}, "LAR": {"latitude": 41.3120994567871, "label": "Laramie", "iata": "LAR", "longitude": -105.675003051758}, "TYB": {"latitude": -29.451099395752, "label": "Sturt", "iata": "TYB", "longitude": 142.057998657227}, "OHH": {"latitude": 53.5200004578, "label": "Okha", "iata": "OHH", "longitude": 142.88999939}, "HFS": {"latitude": 60.0200996398926, "label": "Karlstad", "iata": "HFS", "longitude": 13.5789003372192}, "ROT": {"latitude": -38.1091995239258, "label": "Rotorua", "iata": "ROT", "longitude": 176.317001342773}, "KRI": {"latitude": -7.42437982559204, "label": "New Guinea", "iata": "KRI", "longitude": 144.250076293945}, "BCW": {"latitude": -21.8533000946045, "label": "Vilanculos", "iata": "BCW", "longitude": 35.4383010864258}, "BMJ": {"latitude": 7.37012004852295, "label": "Georgetown", "iata": "BMJ", "longitude": -60.4879989624023}, "RUT": {"latitude": 43.52939987, "label": "Bennington", "iata": "RUT", "longitude": -72.94960022}, "QCJ": {"latitude": -22.9395008087158, "label": "Botucatu", "iata": "QCJ", "longitude": -48.4679985046387}, "JHS": {"latitude": 66.9513015747, "label": "Sisimiut", "iata": "JHS", "longitude": -53.7293014526}, "NIF": {"latitude": -21.6716995239258, "label": "Karlamilyi National Park", "iata": "NIF", "longitude": 121.58699798584}, "ULE": {"latitude": -4.9747200012207, "label": "New Britain Island", "iata": "ULE", "longitude": 151.296997070312}, "MAS": {"latitude": -2.06188988685608, "label": "Manus Island", "iata": "MAS", "longitude": 147.42399597168}, "YSF": {"latitude": 59.250301361084, "label": "La Ronge", "iata": "YSF", "longitude": -105.841003417969}, "CCO": {"latitude": 4.56417, "label": "Villavicencio", "iata": "CCO", "longitude": -71.3364}, "YCR": {"latitude": 54.6105995178223, "label": "Thompson", "iata": "YCR", "longitude": -97.7608032226562}, "OLM": {"latitude": 46.9693985, "label": "Olympia", "iata": "OLM", "longitude": -122.9029999}, "QNV": {"latitude": -22.7453002929688, "label": "Nova Iguacu", "iata": "QNV", "longitude": -43.4603004455566}, "CUC": {"latitude": 7.92757, "label": "Cucuta", "iata": "CUC", "longitude": -72.5115}, "LLW": {"latitude": -13.7894001007, "label": "Lilongwe", "iata": "LLW", "longitude": 33.78099823}, "URT": {"latitude": 9.13259983063, "label": "Surat Thani", "iata": "URT", "longitude": 99.135597229}, "BEN": {"latitude": 32.0968017578, "label": "Benghazi", "iata": "BEN", "longitude": 20.2695007324}, "COD": {"latitude": 44.520198822, "label": "Cody", "iata": "COD", "longitude": -109.024002075}, "TCO": {"latitude": 1.81442, "label": "Cali", "iata": "TCO", "longitude": -78.7492}, "ABV": {"latitude": 9.00679016113281, "label": "Abuja", "iata": "ABV", "longitude": 7.26316976547241}, "AYK": {"latitude": 50.3185997009277, "label": "Astana", "iata": "AYK", "longitude": 66.9527969360352}, "AUP": {"latitude": -9.93083333333, "label": "New Guinea", "iata": "AUP", "longitude": 149.385666667}, "UBP": {"latitude": 15.2512998581, "label": "Ubon Ratchathani", "iata": "UBP", "longitude": 104.870002747}, "DRG": {"latitude": 66.0696029663, "label": "Kotzebue", "iata": "DRG", "longitude": -162.76600647}, "BOL": {"latitude": 55.0602989197, "label": "Ballykelly", "iata": "BOL", "longitude": -7.02027988434}, "PIT": {"latitude": 40.422950742382795, "label": "Pittsburgh", "iata": "PIT", "longitude": -80.08155059971679}, "RFD": {"latitude": 42.1954002380371, "label": "West Chicago", "iata": "RFD", "longitude": -89.0971984863281}, "GGM": {"latitude": 0.271342009306, "label": "Kakamega", "iata": "GGM", "longitude": 34.7873001099}, "EKD": {"latitude": -21.1725006103516, "label": "Tennant Creek", "iata": "EKD", "longitude": 135.444000244141}, "BDY": {"latitude": 43.08649826, "label": "Bandon", "iata": "BDY", "longitude": -124.4079971}, "GCN": {"latitude": 35.545450208759746, "label": "Flagstaff", "iata": "GCN", "longitude": -111.909000386914}, "YZD": {"latitude": 43.7425003051758, "label": "Toronto", "iata": "YZD", "longitude": -79.4655990600586}, "NDY": {"latitude": 59.250301361084, "label": "Sanday Island", "iata": "NDY", "longitude": -2.57666993141174}, "SHB": {"latitude": 43.5774993896, "label": "Hachinohe", "iata": "SHB", "longitude": 144.960006714}, "SAF": {"latitude": 35.617099762, "label": "Santa Fe", "iata": "SAF", "longitude": -106.088996887}, "TSU": {"latitude": -1.47443997859955, "label": "Utiroa", "iata": "TSU", "longitude": 175.063995361328}, "RIJ": {"latitude": -6.06786012649536, "label": "Rioja", "iata": "RIJ", "longitude": -77.1600036621094}, "OKJ": {"latitude": 34.7569007874, "label": "Okayama", "iata": "OKJ", "longitude": 133.854995728}, "GYL": {"latitude": -16.6368999481201, "label": "Lake Argyle", "iata": "GYL", "longitude": 128.45100402832}, "CCB": {"latitude": 34.1115989685, "label": "Upland", "iata": "CCB", "longitude": -117.68800354}, "JLS": {"latitude": -20.2929992675781, "label": "Jales", "iata": "JLS", "longitude": -50.5463981628418}, "TGR": {"latitude": 33.067798614502, "label": "Touggourt", "iata": "TGR", "longitude": 6.0886697769165}, "KAZ": {"latitude": 1.1852799654007, "label": "Ternate", "iata": "KAZ", "longitude": 127.896003723145}, "KLD": {"latitude": 56.8246994018555, "label": "Tver'", "iata": "KLD", "longitude": 35.7577018737793}, "DTA": {"latitude": 39.3805999756, "label": "Delta", "iata": "DTA", "longitude": -112.508003235}, "ANS": {"latitude": -13.7063999176025, "label": "Andahuaylas", "iata": "ANS", "longitude": -73.3504028320312}, "USN": {"latitude": 35.59349823, "label": "Ulsan", "iata": "USN", "longitude": 129.352005005}, "NGQ": {"latitude": 32.1, "label": "Dehradun", "iata": "NGQ", "longitude": 80.0530555556}, "BUF": {"latitude": 42.94049835, "label": "Buffalo", "iata": "BUF", "longitude": -78.73220062}, "ENU": {"latitude": 6.47426986694336, "label": "Enugu", "iata": "ENU", "longitude": 7.56196022033691}, "XMK": {"latitude": 44.5835990905762, "label": "Lyon", "iata": "XMK", "longitude": 4.74056005477905}, "FTA": {"latitude": -19.5163993835, "label": "Tanna", "iata": "FTA", "longitude": 170.231994629}, "JAV": {"latitude": 69.2432022095, "label": "Ilulissat", "iata": "JAV", "longitude": -51.0570983887}, "XSP": {"latitude": 1.4169499874115, "label": "Pulau Ujong", "iata": "XSP", "longitude": 103.86799621582}, "SRZ": {"latitude": -17.728199958778603, "label": "Santa Cruz de la Sierra", "iata": "SRZ", "longitude": -63.15345001222305}, "XGG": {"latitude": 14.4499998092651, "label": "Gorom-Gorom", "iata": "XGG", "longitude": -0.232999995350838}, "CCY": {"latitude": 43.0726013184, "label": "Charles City", "iata": "CCY", "longitude": -92.6108016968}, "BXD": {"latitude": -7.71463012695312, "label": "New Guinea", "iata": "BXD", "longitude": 139.574996948242}, "LNH": {"latitude": -20.9807, "label": "Mount Isa", "iata": "LNH", "longitude": 137.9178}, "PBP": {"latitude": 9.85610961914062, "label": "Nandayure", "iata": "PBP", "longitude": -85.3707962036133}, "CYC": {"latitude": 17.7007999420166, "label": "Belize City", "iata": "CYC", "longitude": -88.0410995483398}, "KHI": {"latitude": 24.9064998626709, "label": "Karachi", "iata": "KHI", "longitude": 67.1607971191406}, "WLL": {"latitude": -17.2199, "label": "Pungalina-Seven Emu Sanctuary", "iata": "WLL", "longitude": 137.93453}, "BGK": {"latitude": 16.5193691253662, "label": "Placencia", "iata": "BGK", "longitude": -88.4079132080078}, "ATX": {"latitude": 51.8516998291016, "label": "Atbasar", "iata": "ATX", "longitude": 68.3632965087891}, "YPZ": {"latitude": 54.3763999939, "label": "Burns Lake", "iata": "YPZ", "longitude": -125.950996399}, "SYK": {"latitude": 65.0580978393555, "label": "Stykkisholmur", "iata": "SYK", "longitude": -22.7942008972168},